[
  {
    "title": "Gs25",
    "id": "here:pds:place:704w3gv7-c198c2b2289a50d34a7a55b351854da6",
    "resultType": "place",
    "address": {
      "label": "Gs25, 70 Đường Huỳnh Văn Bánh, Phường 13, Quận Phú Nhuận, Hồ Chí Minh, Việt Nam",
      "countryCode": "VNM",
      "countryName": "Việt Nam",
      "county": "Hồ Chí Minh",
      "city": "Quận Phú Nhuận",
      "district": "Phường 13",
      "street": "Đường Huỳnh Văn Bánh",
      "postalCode": "72220",
      "houseNumber": "70"
    },
    "position": {
      "lat": 10.79174,
      "lng": 106.6695
    },
    "access": [
      {
        "lat": 10.79168,
        "lng": 106.66949
      }
    ],
    "distance": 228,
    "categories": [
      {
        "id": "600-6000-0061",
        "name": "Cửa hàng tiện lợi",
        "primary": true
      }
    ]
  },
  {
    "title": "SCB Lê Văn Sỹ",
    "id": "here:pds:place:704w3gv7-a1baafd0ad524a559b4a959d4c340d72",
    "resultType": "place",
    "address": {
      "label": "SCB Lê Văn Sỹ, 185 Đường Lê Văn Sỹ, Phường 13, Quận Phú Nhuận, Hồ Chí Minh, Việt Nam",
      "countryCode": "VNM",
      "countryName": "Việt Nam",
      "county": "Hồ Chí Minh",
      "city": "Quận Phú Nhuận",
      "district": "Phường 13",
      "street": "Đường Lê Văn Sỹ",
      "postalCode": "72220",
      "houseNumber": "185"
    },
    "position": {
      "lat": 10.79261,
      "lng": 106.67046
    },
    "access": [
      {
        "lat": 10.79265,
        "lng": 106.67048
      }
    ],
    "distance": 201,
    "categories": [
      {
        "id": "700-7000-0107",
        "name": "Ngân hàng",
        "primary": true
      }
    ]
  },
  {
    "title": "Ngân Hàng Phương Đông",
    "id": "here:pds:place:704jx7ps-e6320ac47aef01d58295ef8bdf7b1f68",
    "resultType": "place",
    "address": {
      "label": "Ngân Hàng Phương Đông, 146 Đường Lê Văn Sỹ, Phường 13, Quận Phú Nhuận, Hồ Chí Minh, Việt Nam",
      "countryCode": "VNM",
      "countryName": "Việt Nam",
      "county": "Hồ Chí Minh",
      "city": "Quận Phú Nhuận",
      "district": "Phường 13",
      "street": "Đường Lê Văn Sỹ",
      "postalCode": "72220",
      "houseNumber": "146"
    },
    "position": {
      "lat": 10.79212,
      "lng": 106.67126
    },
    "access": [
      {
        "lat": 10.7921,
        "lng": 106.67123
      }
    ],
    "distance": 304,
    "categories": [
      {
        "id": "700-7000-0107",
        "name": "Ngân hàng",
        "primary": true
      }
    ]
  },
  {
    "title": "Central Plaza",
    "id": "here:pds:place:704w3gv7-740c6d48faf041908b3cbce840901d0c",
    "resultType": "place",
    "address": {
      "label": "Central Plaza, 91 Đường Phạm Văn Hai, Phường 3, Quận Tân Bình, Hồ Chí Minh, Việt Nam",
      "countryCode": "VNM",
      "countryName": "Việt Nam",
      "county": "Hồ Chí Minh",
      "city": "Quận Tân Bình",
      "district": "Phường 3",
      "street": "Đường Phạm Văn Hai",
      "postalCode": "72120",
      "houseNumber": "91"
    },
    "position": {
      "lat": 10.79389,
      "lng": 106.66298
    },
    "access": [
      {
        "lat": 10.79392,
        "lng": 106.6629
      }
    ],
    "distance": 224,
    "categories": [
      {
        "id": "600-6100-0062",
        "name": "Trung tâm mua sắm hoặc trung tâm thương mại",
        "primary": true
      },
      {
        "id": "700-7400-0145",
        "name": "Hãng môi giới bất động sản",
        "primary": false
      },
      {
        "id": "900-9300-0221",
        "name": "Tòa nhà chung cư",
        "primary": false
      }
    ]
  },
  {
    "title": "Organic Food",
    "id": "here:pds:place:704w3gv7-4e588ce067418e96f53a46e02e64aad7",
    "resultType": "place",
    "address": {
      "label": "Organic Food, 409 Đường Hoàng Văn Thụ, Phường 2, Quận Tân Bình, Hồ Chí Minh, Việt Nam",
      "countryCode": "VNM",
      "countryName": "Việt Nam",
      "county": "Hồ Chí Minh",
      "city": "Quận Tân Bình",
      "district": "Phường 2",
      "street": "Đường Hoàng Văn Thụ",
      "postalCode": "72108",
      "houseNumber": "409"
    },
    "position": {
      "lat": 10.79938,
      "lng": 106.66003
    },
    "access": [
      {
        "lat": 10.79942,
        "lng": 106.65998
      }
    ],
    "distance": 595,
    "categories": [
      {
        "id": "600-6100-0062",
        "name": "Trung tâm mua sắm hoặc trung tâm thương mại",
        "primary": true
      },
      {
        "id": "600-6000-0061",
        "name": "Cửa hàng tiện lợi",
        "primary": false
      },
      {
        "id": "600-6500-0072",
        "name": "Cửa hàng điện tử gia dụng",
        "primary": false
      },
      {
        "id": "600-6900-0305",
        "name": "Cửa hàng người lớn/giới tính",
        "primary": false
      },
      {
        "id": "700-7400-0146",
        "name": "Dịch vụ sửa chữa",
        "primary": false
      }
    ]
  },
  {
    "title": "VINCOM Plaza-Cộng Hòa",
    "id": "here:pds:place:704w3gv7-334547c04830413d971c9b9c4fc9e35b",
    "resultType": "place",
    "address": {
      "label": "VINCOM Plaza-Cộng Hòa, 15-17 Hẻm 11 Đường Cộng Hòa, Phường 4, Quận Tân Bình, Hồ Chí Minh, Việt Nam",
      "countryCode": "VNM",
      "countryName": "Việt Nam",
      "county": "Hồ Chí Minh",
      "city": "Quận Tân Bình",
      "district": "Phường 4",
      "street": "Hẻm 11 Đường Cộng Hòa",
      "postalCode": "72106",
      "houseNumber": "15-17"
    },
    "position": {
      "lat": 10.80074,
      "lng": 106.65856
    },
    "access": [
      {
        "lat": 10.80072,
        "lng": 106.65855
      }
    ],
    "distance": 816,
    "categories": [
      {
        "id": "600-6100-0062",
        "name": "Trung tâm mua sắm hoặc trung tâm thương mại",
        "primary": true
      }
    ]
  },
  {
    "title": "Nem Nướng Nha Trang Cô Điệp",
    "id": "here:pds:place:704w3gv6-d7ced680e8254f58b7b65796447d2802",
    "resultType": "place",
    "address": {
      "label": "Nem Nướng Nha Trang Cô Điệp, 337 Đường Lê Văn Sỹ, Phường 1, Quận Tân Bình, Hồ Chí Minh, Việt Nam",
      "countryCode": "VNM",
      "countryName": "Việt Nam",
      "county": "Hồ Chí Minh",
      "city": "Quận Tân Bình",
      "district": "Phường 1",
      "street": "Đường Lê Văn Sỹ",
      "postalCode": "72107",
      "houseNumber": "337"
    },
    "position": {
      "lat": 10.79584,
      "lng": 106.66606
    },
    "access": [
      {
        "lat": 10.79588,
        "lng": 106.66609
      }
    ],
    "distance": 202,
    "categories": [
      {
        "id": "100-1000-0001",
        "name": "Quán ăn bình dân",
        "primary": true
      },
      {
        "id": "100-1000-0000",
        "name": "Nhà hàng",
        "primary": false
      },
      {
        "id": "100-1000-0004",
        "name": "Chợ/Gian hàng ẩm thực",
        "primary": false
      },
      {
        "id": "600-6300-0064",
        "name": "Đặc sản \u0026 Đồ uống",
        "primary": false
      }
    ]
  },
  {
    "title": "Hồ Gia Cơm Gà Xối Mỡ",
    "id": "here:pds:place:704xjxn4-e99170a4bcb50857fcdc8cbd88c36954",
    "resultType": "place",
    "address": {
      "label": "Hồ Gia Cơm Gà Xối Mỡ, 357 Đường Nguyễn Trọng Tuyển, Phường 1, Quận Tân Bình, Hồ Chí Minh, Việt Nam",
      "countryCode": "VNM",
      "countryName": "Việt Nam",
      "county": "Hồ Chí Minh",
      "city": "Quận Tân Bình",
      "district": "Phường 1",
      "street": "Đường Nguyễn Trọng Tuyển",
      "postalCode": "72107",
      "houseNumber": "357"
    },
    "position": {
      "lat": 10.79841,
      "lng": 106.6661
    },
    "access": [
      {
        "lat": 10.79843,
        "lng": 106.6661
      }
    ],
    "distance": 217,
    "categories": [
      {
        "id": "600-6300-0064",
        "name": "Đặc sản \u0026 Đồ uống",
        "primary": true
      },
      {
        "id": "100-1000-0000",
        "name": "Nhà hàng",
        "primary": false
      }
    ]
  },
  {
    "title": "Tàu Hủ Xe Lôi",
    "id": "here:pds:place:704w3gv7-fa46cd6e17b61205067293b128de5196",
    "resultType": "place",
    "address": {
      "label": "Tàu Hủ Xe Lôi, 12 Hẻm 337 Lê Văn Sỹ, Phường 1, Quận Tân Bình, Hồ Chí Minh, Việt Nam",
      "countryCode": "VNM",
      "countryName": "Việt Nam",
      "county": "Hồ Chí Minh",
      "city": "Quận Tân Bình",
      "district": "Phường 1",
      "street": "Hẻm 337 Lê Văn Sỹ",
      "postalCode": "72107",
      "houseNumber": "12"
    },
    "position": {
      "lat": 10.79527,
      "lng": 106.66552
    },
    "access": [
      {
        "lat": 10.79524,
        "lng": 106.66556
      }
    ],
    "distance": 218,
    "categories": [
      {
        "id": "600-6300-0064",
        "name": "Đặc sản \u0026 Đồ uống",
        "primary": true
      }
    ]
  },
  {
    "title": "Vitamin Bar",
    "id": "here:pds:place:704httek-7fcb5f48370e01b2a372bba01bb9c36b",
    "resultType": "place",
    "address": {
      "label": "Vitamin Bar, 174 Đường Đặng Văn Ngữ, Phường 13, Quận Phú Nhuận, Hồ Chí Minh, Việt Nam",
      "countryCode": "VNM",
      "countryName": "Việt Nam",
      "county": "Hồ Chí Minh",
      "city": "Quận Phú Nhuận",
      "district": "Phường 13",
      "street": "Đường Đặng Văn Ngữ",
      "postalCode": "72220",
      "houseNumber": "174"
    },
    "position": {
      "lat": 10.79136,
      "lng": 106.66705
    },
    "access": [
      {
        "lat": 10.79129,
        "lng": 106.66715
      }
    ],
    "distance": 341,
    "categories": [
      {
        "id": "600-6300-0064",
        "name": "Đặc sản \u0026 Đồ uống",
        "primary": true
      },
      {
        "id": "100-1000-0000",
        "name": "Nhà hàng",
        "primary": false
      },
      {
        "id": "100-1000-0001",
        "name": "Quán ăn bình dân",
        "primary": false
      },
      {
        "id": "200-2000-0000",
        "name": "Giải trí về đêm",
        "primary": false
      },
      {
        "id": "200-2000-0011",
        "name": "Bar hoặc Quán rượu",
        "primary": false
      },
      {
        "id": "200-2000-0368",
        "name": "Quầy Cocktail",
        "primary": false
      },
      {
        "id": "600-6900-0096",
        "name": "Cửa hàng chuyên dụng",
        "primary": false
      }
    ]
  },
  {
    "title": "Phòng Trà Cây Đàn",
    "id": "here:pds:place:704xjxn4-3a7aeb4368da0b3b6af3ac8086d5d59b",
    "resultType": "place",
    "address": {
      "label": "Phòng Trà Cây Đàn, 311 Đường Nguyễn Trọng Tuyển, Phường 10, Quận Phú Nhuận, Hồ Chí Minh, Việt Nam",
      "countryCode": "VNM",
      "countryName": "Việt Nam",
      "county": "Hồ Chí Minh",
      "city": "Quận Phú Nhuận",
      "district": "Phường 10",
      "street": "Đường Nguyễn Trọng Tuyển",
      "postalCode": "72218",
      "houseNumber": "311"
    },
    "position": {
      "lat": 10.79811,
      "lng": 106.66923
    },
    "access": [
      {
        "lat": 10.79815,
        "lng": 106.66923
      }
    ],
    "distance": 486,
    "categories": [
      {
        "id": "200-2000-0011",
        "name": "Bar hoặc Quán rượu",
        "primary": true
      },
      {
        "id": "200-2000-0000",
        "name": "Giải trí về đêm",
        "primary": false
      },
      {
        "id": "600-6600-0078",
        "name": "Cửa hàng bán đồ gia dụng/Nội thất",
        "primary": false
      },
      {
        "id": "700-7200-0265",
        "name": "Sản xuất",
        "primary": false
      }
    ]
  },
  {
    "title": "Mothaibar-Eastingrandh",
    "id": "here:pds:place:704w3gv7-8ddeeb051a944f5897a1cb920d7fbb31",
    "resultType": "place",
    "address": {
      "label": "Mothaibar-Eastingrandh, 251 Đường Nguyễn Văn Trỗi, Phường 10, Quận Phú Nhuận, Hồ Chí Minh, Việt Nam",
      "countryCode": "VNM",
      "countryName": "Việt Nam",
      "county": "Hồ Chí Minh",
      "city": "Quận Phú Nhuận",
      "district": "Phường 10",
      "street": "Đường Nguyễn Văn Trỗi",
      "postalCode": "72218",
      "houseNumber": "251"
    },
    "position": {
      "lat": 10.79748,
      "lng": 106.67216
    },
    "access": [
      {
        "lat": 10.79757,
        "lng": 106.6722
      }
    ],
    "distance": 539,
    "categories": [
      {
        "id": "200-2000-0011",
        "name": "Bar hoặc Quán rượu",
        "primary": true
      }
    ]
  },
  {
    "title": "Chợ Trần Hữu Trang",
    "id": "here:pds:place:704w3gv7-b16428cef6f165e56dc1eaf4a2cf2242",
    "resultType": "place",
    "address": {
      "label": "Chợ Trần Hữu Trang, 84 Đường Trần Hữu Trang, Phường 10, Quận Phú Nhuận, Hồ Chí Minh, Việt Nam",
      "countryCode": "VNM",
      "countryName": "Việt Nam",
      "county": "Hồ Chí Minh",
      "city": "Quận Phú Nhuận",
      "district": "Phường 10",
      "street": "Đường Trần Hữu Trang",
      "postalCode": "72218",
      "houseNumber": "84"
    },
    "position": {
      "lat": 10.79324,
      "lng": 106.67233
    },
    "access": [
      {
        "lat": 10.79322,
        "lng": 106.67219
      }
    ],
    "distance": 527,
    "categories": [
      {
        "id": "600-6800-0090",
        "name": "Quần áo phụ nữ",
        "primary": true
      },
      {
        "id": "600-6100-0062",
        "name": "Trung tâm mua sắm hoặc trung tâm thương mại",
        "primary": false
      },
      {
        "id": "600-6300-0066",
        "name": "Siêu thị",
        "primary": false
      },
      {
        "id": "600-6800-0000",
        "name": "Quần áo \u0026 Phụ kiện",
        "primary": false
      },
      {
        "id": "600-6900-0000",
        "name": "Hàng tiêu dùng",
        "primary": false
      },
      {
        "id": "600-6900-0247",
        "name": "Chợ",
        "primary": false
      }
    ]
  },
  {
    "title": "V.Man Tailor",
    "id": "here:pds:place:704w3gv7-9af2bed10302d8c5dac218d4808dc2bd",
    "resultType": "place",
    "address": {
      "label": "V.Man Tailor, 338 Đường Huỳnh Văn Bánh, Phường 10, Quận Phú Nhuận, Hồ Chí Minh, Việt Nam",
      "countryCode": "VNM",
      "countryName": "Việt Nam",
      "county": "Hồ Chí Minh",
      "city": "Quận Phú Nhuận",
      "district": "Phường 10",
      "street": "Đường Huỳnh Văn Bánh",
      "postalCode": "72218",
      "houseNumber": "338"
    },
    "position": {
      "lat": 10.79192,
      "lng": 106.67187
    },
    "access": [
      {
        "lat": 10.79188,
        "lng": 106.67187
      }
    ],
    "distance": 667,
    "categories": [
      {
        "id": "600-6100-0062",
        "name": "Trung tâm mua sắm hoặc trung tâm thương mại",
        "primary": true
      }
    ]
  },
  {
    "title": "Đại Lý MH Real Estate Mua \u0026 Bán",
    "id": "here:pds:place:704w3gv7-46d5e84e7cc331eafd5335d50857aae9",
    "resultType": "place",
    "address": {
      "label": "Đại Lý MH Real Estate Mua \u0026 Bán, 314 Đường Huỳnh Văn Bánh, Phường 11, Quận Phú Nhuận, Hồ Chí Minh, Việt Nam",
      "countryCode": "VNM",
      "countryName": "Việt Nam",
      "county": "Hồ Chí Minh",
      "city": "Quận Phú Nhuận",
      "district": "Phường 11",
      "street": "Đường Huỳnh Văn Bánh",
      "postalCode": "72206",
      "houseNumber": "314"
    },
    "position": {
      "lat": 10.79187,
      "lng": 106.67307
    },
    "access": [
      {
        "lat": 10.79183,
        "lng": 106.67306
      }
    ],
    "distance": 693,
    "categories": [
      {
        "id": "600-6100-0062",
        "name": "Trung tâm mua sắm hoặc trung tâm thương mại",
        "primary": true
      }
    ]
  },
  {
    "title": "Bar 141",
    "id": "here:pds:place:704jx7ps-44fa8581fb2f0c6dd6d0732204679c07",
    "resultType": "place",
    "address": {
      "label": "Bar 141, 141 Đường Nguyễn Đình Chính, Phường 8, Quận Phú Nhuận, Hồ Chí Minh, Việt Nam",
      "countryCode": "VNM",
      "countryName": "Việt Nam",
      "county": "Hồ Chí Minh",
      "city": "Quận Phú Nhuận",
      "district": "Phường 8",
      "street": "Đường Nguyễn Đình Chính",
      "postalCode": "72217",
      "houseNumber": "141"
    },
    "position": {
      "lat": 10.79601,
      "lng": 106.67624
    },
    "access": [
      {
        "lat": 10.79607,
        "lng": 106.67619
      }
    ],
    "distance": 277,
    "categories": [
      {
        "id": "200-2000-0011",
        "name": "Bar hoặc Quán rượu",
        "primary": true
      },
      {
        "id": "100-1000-0000",
        "name": "Nhà hàng",
        "primary": false
      },
      {
        "id": "200-2000-0000",
        "name": "Giải trí về đêm",
        "primary": false
      },
      {
        "id": "200-2000-0012",
        "name": "Câu lạc bộ đêm",
        "primary": false
      }
    ]
  },
  {
    "title": "Baba Lager Beer House",
    "id": "here:pds:place:704aabd1-05d8d7cd21260872915d6202e5407d33",
    "resultType": "place",
    "address": {
      "label": "Baba Lager Beer House, 22A Đường Nguyễn Văn Trỗi, Phường 11, Quận Phú Nhuận, Hồ Chí Minh, Việt Nam",
      "countryCode": "VNM",
      "countryName": "Việt Nam",
      "county": "Hồ Chí Minh",
      "city": "Quận Phú Nhuận",
      "district": "Phường 11",
      "street": "Đường Nguyễn Văn Trỗi",
      "postalCode": "72206",
      "houseNumber": "22A"
    },
    "position": {
      "lat": 10.79275,
      "lng": 106.68063
    },
    "access": [
      {
        "lat": 10.79264,
        "lng": 106.68057
      }
    ],
    "distance": 330,
    "categories": [
      {
        "id": "200-2000-0011",
        "name": "Bar hoặc Quán rượu",
        "primary": true
      },
      {
        "id": "100-1000-0000",
        "name": "Nhà hàng",
        "primary": false
      },
      {
        "id": "200-2000-0000",
        "name": "Giải trí về đêm",
        "primary": false
      },
      {
        "id": "200-2000-0019",
        "name": "Vườn Bia",
        "primary": false
      }
    ]
  },
  {
    "title": "Tommy Shop",
    "id": "here:pds:place:704d408k-f3a381f537470c59d7be7655693c4d2d",
    "resultType": "place",
    "address": {
      "label": "Tommy Shop, 234A Đường Huỳnh Văn Bánh, Phường 11, Quận Phú Nhuận, Hồ Chí Minh, Việt Nam",
      "countryCode": "VNM",
      "countryName": "Việt Nam",
      "county": "Hồ Chí Minh",
      "city": "Quận Phú Nhuận",
      "district": "Phường 11",
      "street": "Đường Huỳnh Văn Bánh",
      "postalCode": "72206",
      "houseNumber": "234A"
    },
    "position": {
      "lat": 10.79173,
      "lng": 106.67577
    },
    "access": [
      {
        "lat": 10.79166,
        "lng": 106.67576
      }
    ],
    "distance": 370,
    "categories": [
      {
        "id": "200-2000-0011",
        "name": "Bar hoặc Quán rượu",
        "primary": true
      },
      {
        "id": "600-6200-0063",
        "name": "Cửa hàng bách hóa",
        "primary": false
      }
    ]
  },
  {
    "title": "Cửa Hàng Quà Tặng Ai Cập",
    "id": "here:pds:place:7041r4ve-5073d90f05ac08d2c3ff8511f95d7fef",
    "resultType": "place",
    "address": {
      "label": "Cửa Hàng Quà Tặng Ai Cập, 130 Đường Trần Huy Liệu, Phường 15, Quận Phú Nhuận, Hồ Chí Minh, Việt Nam",
      "countryCode": "VNM",
      "countryName": "Việt Nam",
      "county": "Hồ Chí Minh",
      "city": "Quận Phú Nhuận",
      "district": "Phường 15",
      "street": "Đường Trần Huy Liệu",
      "postalCode": "72209",
      "houseNumber": "130"
    },
    "position": {
      "lat": 10.7971,
      "lng": 106.67774
    },
    "access": [
      {
        "lat": 10.79709,
        "lng": 106.67769
      }
    ],
    "distance": 320,
    "categories": [
      {
        "id": "600-6900-0103",
        "name": "Quà tặng, đồ cổ và tác phẩm nghệ thuật",
        "primary": true
      },
      {
        "id": "600-6900-0096",
        "name": "Cửa hàng chuyên dụng",
        "primary": false
      }
    ]
  },
  {
    "title": "Đũi Design",
    "id": "here:pds:place:704w3gv7-514ec88fc0ec61d4d76b3faa65bf9044",
    "resultType": "place",
    "address": {
      "label": "Đũi Design, 247A Đường Huỳnh Văn Bánh, Phường 11, Quận Phú Nhuận, Hồ Chí Minh, Việt Nam",
      "countryCode": "VNM",
      "countryName": "Việt Nam",
      "county": "Hồ Chí Minh",
      "city": "Quận Phú Nhuận",
      "district": "Phường 11",
      "street": "Đường Huỳnh Văn Bánh",
      "postalCode": "72206",
      "houseNumber": "247A"
    },
    "position": {
      "lat": 10.79159,
      "lng": 106.67658
    },
    "access": [
      {
        "lat": 10.79163,
        "lng": 106.67657
      }
    ],
    "distance": 333,
    "categories": [
      {
        "id": "600-6900-0103",
        "name": "Quà tặng, đồ cổ và tác phẩm nghệ thuật",
        "primary": true
      }
    ]
  },
  {
    "title": "Cửa Hàng Tranh Quà Tặng Lời Vàng \u0026 Ngọc",
    "id": "here:pds:place:704w3gv7-722ee80f8f514c519a3ad9f8b3fa6429",
    "resultType": "place",
    "address": {
      "label": "Cửa Hàng Tranh Quà Tặng Lời Vàng \u0026 Ngọc, 29 Hẻm 33 Nguyễn Đình Chính, Phường 15, Quận Phú Nhuận, Hồ Chí Minh, Việt Nam",
      "countryCode": "VNM",
      "countryName": "Việt Nam",
      "county": "Hồ Chí Minh",
      "city": "Quận Phú Nhuận",
      "district": "Phường 15",
      "street": "Hẻm 33 Nguyễn Đình Chính",
      "postalCode": "72209",
      "houseNumber": "29"
    },
    "position": {
      "lat": 10.79689,
      "lng": 106.67989
    },
    "access": [
      {
        "lat": 10.79692,
        "lng": 106.67985
      }
    ],
    "distance": 360,
    "categories": [
      {
        "id": "600-6900-0103",
        "name": "Quà tặng, đồ cổ và tác phẩm nghệ thuật",
        "primary": true
      },
      {
        "id": "600-6900-0000",
        "name": "Hàng tiêu dùng",
        "primary": false
      }
    ]
  },
  {
    "title": "Phú Nhuận Plaza",
    "id": "here:pds:place:704w3gv7-28d55a6a9e18335cb7871e8ce1a29b74",
    "resultType": "place",
    "address": {
      "label": "Phú Nhuận Plaza, 82 Đường Trần Huy Liệu, Phường 15, Quận Phú Nhuận, Hồ Chí Minh, Việt Nam",
      "countryCode": "VNM",
      "countryName": "Việt Nam",
      "county": "Hồ Chí Minh",
      "city": "Quận Phú Nhuận",
      "district": "Phường 15",
      "street": "Đường Trần Huy Liệu",
      "postalCode": "72209",
      "houseNumber": "82"
    },
    "position": {
      "lat": 10.79486,
      "lng": 106.67789
    },
    "access": [
      {
        "lat": 10.79486,
        "lng": 106.6779
      }
    ],
    "distance": 454,
    "categories": [
      {
        "id": "600-6100-0062",
        "name": "Trung tâm mua sắm hoặc trung tâm thương mại",
        "primary": true
      },
      {
        "id": "800-8400-0176",
        "name": "Trung tâm hội nghị hoặc triển lãm",
        "primary": false
      }
    ]
  },
  {
    "title": "Shee Store",
    "id": "here:pds:place:704httek-73464aec6b130e5a92372c4edc5aeed2",
    "resultType": "place",
    "address": {
      "label": "Shee Store, 392 Đường Hai Bà Trưng, Phường Tân Định, Quận 1, Hồ Chí Minh, Việt Nam",
      "countryCode": "VNM",
      "countryName": "Việt Nam",
      "county": "Hồ Chí Minh",
      "city": "Quận 1",
      "district": "Phường Tân Định",
      "street": "Đường Hai Bà Trưng",
      "postalCode": "71008",
      "houseNumber": "392"
    },
    "position": {
      "lat": 10.79078,
      "lng": 106.68843
    },
    "access": [
      {
        "lat": 10.79073,
        "lng": 106.68837
      }
    ],
    "distance": 900,
    "categories": [
      {
        "id": "600-6100-0062",
        "name": "Trung tâm mua sắm hoặc trung tâm thương mại",
        "primary": true
      }
    ]
  },
  {
    "title": "Da Việt",
    "id": "here:pds:place:704w3gv7-8922706eec3d247786ef6620d01409cd",
    "resultType": "place",
    "address": {
      "label": "Da Việt, 7 Đường Trần Nhật Duật, Phường Tân Định, Quận 1, Hồ Chí Minh, Việt Nam",
      "countryCode": "VNM",
      "countryName": "Việt Nam",
      "county": "Hồ Chí Minh",
      "city": "Quận 1",
      "district": "Phường Tân Định",
      "street": "Đường Trần Nhật Duật",
      "postalCode": "71008",
      "houseNumber": "7"
    },
    "position": {
      "lat": 10.7926,
      "lng": 106.6899
    },
    "access": [
      {
        "lat": 10.79257,
        "lng": 106.68972
      }
    ],
    "distance": 938,
    "categories": [
      {
        "id": "600-6900-0096",
        "name": "Cửa hàng chuyên dụng",
        "primary": true
      },
      {
        "id": "600-6100-0062",
        "name": "Trung tâm mua sắm hoặc trung tâm thương mại",
        "primary": false
      },
      {
        "id": "600-6800-0000",
        "name": "Quần áo \u0026 Phụ kiện",
        "primary": false
      },
      {
        "id": "600-6800-0092",
        "name": "Giày dép",
        "primary": false
      },
      {
        "id": "600-6900-0103",
        "name": "Quà tặng, đồ cổ và tác phẩm nghệ thuật",
        "primary": false
      }
    ]
  },
  {
    "title": "Tebyte",
    "id": "here:pds:place:704w3gv7-8d39ff52eeb461c7ceae7d4efcfd4451",
    "resultType": "place",
    "address": {
      "label": "Tebyte, 283 Đường Phan Đình Phùng, Phường 15, Quận Phú Nhuận, Hồ Chí Minh, Việt Nam",
      "countryCode": "VNM",
      "countryName": "Việt Nam",
      "county": "Hồ Chí Minh",
      "city": "Quận Phú Nhuận",
      "district": "Phường 15",
      "street": "Đường Phan Đình Phùng",
      "postalCode": "72209",
      "houseNumber": "283"
    },
    "position": {
      "lat": 10.79738,
      "lng": 106.68101
    },
    "access": [
      {
        "lat": 10.7974,
        "lng": 106.68106
      }
    ],
    "distance": 207,
    "categories": [
      {
        "id": "200-2000-0011",
        "name": "Bar hoặc Quán rượu",
        "primary": true
      }
    ]
  },
  {
    "title": "Acoustic Bar Nam Kỳ Khởi Nghĩa",
    "id": "here:pds:place:704w3gv7-4051452c63544886941c6d85e95e9edf",
    "resultType": "place",
    "address": {
      "label": "Acoustic Bar Nam Kỳ Khởi Nghĩa, 3 Đường Ngô Thời Nhiệm, Phường 17, Quận Phú Nhuận, Hồ Chí Minh, Việt Nam",
      "countryCode": "VNM",
      "countryName": "Việt Nam",
      "county": "Hồ Chí Minh",
      "city": "Quận Phú Nhuận",
      "district": "Phường 17",
      "street": "Đường Ngô Thời Nhiệm",
      "postalCode": "72208",
      "houseNumber": "3"
    },
    "position": {
      "lat": 10.79275,
      "lng": 106.6837
    },
    "access": [
      {
        "lat": 10.79282,
        "lng": 106.68388
      }
    ],
    "distance": 386,
    "categories": [
      {
        "id": "200-2000-0011",
        "name": "Bar hoặc Quán rượu",
        "primary": true
      },
      {
        "id": "100-1000-0001",
        "name": "Quán ăn bình dân",
        "primary": false
      },
      {
        "id": "300-3000-0000",
        "name": "Thắng cảnh hoặc điểm du lịch",
        "primary": false
      }
    ]
  },
  {
    "title": "The Hammond",
    "id": "here:pds:place:704w3gv7-797d802359107c6b73f0d271b145d9cf",
    "resultType": "place",
    "address": {
      "label": "The Hammond, 279 Đường Hoàng Sa, Phường Tân Định, Quận 1, Hồ Chí Minh, Việt Nam",
      "countryCode": "VNM",
      "countryName": "Việt Nam",
      "county": "Hồ Chí Minh",
      "city": "Quận 1",
      "district": "Phường Tân Định",
      "street": "Đường Hoàng Sa",
      "postalCode": "71008",
      "houseNumber": "279"
    },
    "position": {
      "lat": 10.79649,
      "lng": 106.68569
    },
    "access": [
      {
        "lat": 10.79657,
        "lng": 106.68572
      }
    ],
    "distance": 418,
    "categories": [
      {
        "id": "100-1000-0000",
        "name": "Nhà hàng",
        "primary": true
      },
      {
        "id": "200-2000-0011",
        "name": "Bar hoặc Quán rượu",
        "primary": false
      }
    ]
  },
  {
    "title": "Điểm Dừng Xe Buýt",
    "id": "here:pds:place:704w3gv7-bd98ffcdc569e7a419c2abd718e2d9ed",
    "resultType": "place",
    "address": {
      "label": "Điểm Dừng Xe Buýt, 5 Đường Phan Đăng Lưu, Phường 7, Quận Phú Nhuận, Hồ Chí Minh, Việt Nam",
      "countryCode": "VNM",
      "countryName": "Việt Nam",
      "county": "Hồ Chí Minh",
      "city": "Quận Phú Nhuận",
      "district": "Phường 7",
      "street": "Đường Phan Đăng Lưu",
      "postalCode": "72212",
      "houseNumber": "5"
    },
    "position": {
      "lat": 10.80323,
      "lng": 106.68834
    },
    "access": [
      {
        "lat": 10.80365,
        "lng": 106.68837
      }
    ],
    "distance": 528,
    "categories": [
      {
        "id": "400-4100-0036",
        "name": "Trạm xe buýt",
        "primary": true
      }
    ]
  },
  {
    "title": "Điểm Dừng Xe Buýt",
    "id": "here:pds:place:704w3gv7-33fa8bde19aab3674fa2344ccd9b96b7",
    "resultType": "place",
    "address": {
      "label": "Điểm Dừng Xe Buýt, 14 Đường Phan Đăng Lưu, Phường 6, Quận Bình Thạnh, Hồ Chí Minh, Việt Nam",
      "countryCode": "VNM",
      "countryName": "Việt Nam",
      "county": "Hồ Chí Minh",
      "city": "Quận Bình Thạnh",
      "district": "Phường 6",
      "street": "Đường Phan Đăng Lưu",
      "postalCode": "72315",
      "houseNumber": "14"
    },
    "position": {
      "lat": 10.80326,
      "lng": 106.69218
    },
    "access": [
      {
        "lat": 10.80318,
        "lng": 106.69216
      }
    ],
    "distance": 732,
    "categories": [
      {
        "id": "400-4100-0036",
        "name": "Trạm xe buýt",
        "primary": true
      }
    ]
  },
  {
    "title": "Trung Tâm Bưu Chính Sài Gòn Bưu Cục Bình Lợi",
    "id": "here:pds:place:704w3gv7-8987b695d7254ae8937ceac7fc7ec873",
    "resultType": "place",
    "address": {
      "label": "Trung Tâm Bưu Chính Sài Gòn Bưu Cục Bình Lợi, 56D Đường Hoa Cau, Phường 7, Quận Phú Nhuận, Hồ Chí Minh, Việt Nam",
      "countryCode": "VNM",
      "countryName": "Việt Nam",
      "county": "Hồ Chí Minh",
      "city": "Quận Phú Nhuận",
      "district": "Phường 7",
      "street": "Đường Hoa Cau",
      "postalCode": "72212",
      "houseNumber": "56D"
    },
    "position": {
      "lat": 10.79942,
      "lng": 106.68928
    },
    "access": [
      {
        "lat": 10.79948,
        "lng": 106.68928
      }
    ],
    "distance": 537,
    "categories": [
      {
        "id": "700-7450-0114",
        "name": "Bưu điện",
        "primary": true
      }
    ]
  },
  {
    "title": "Post Office-Bưu Cục Cấp 3 Đa Kao",
    "id": "here:pds:place:704w3gv7-9f5d8f81583e4f76a5931c8ab106c91f",
    "resultType": "place",
    "address": {
      "label": "Post Office-Bưu Cục Cấp 3 Đa Kao, 19 Đường Trần Quang Khải, Phường Tân Định, Quận 1, Hồ Chí Minh, Việt Nam",
      "countryCode": "VNM",
      "countryName": "Việt Nam",
      "county": "Hồ Chí Minh",
      "city": "Quận 1",
      "district": "Phường Tân Định",
      "street": "Đường Trần Quang Khải",
      "postalCode": "71008",
      "houseNumber": "19"
    },
    "position": {
      "lat": 10.79252,
      "lng": 106.6953
    },
    "access": [
      {
        "lat": 10.79259,
        "lng": 106.69528
      }
    ],
    "distance": 556,
    "categories": [
      {
        "id": "700-7450-0114",
        "name": "Bưu điện",
        "primary": true
      }
    ]
  },
  {
    "title": "Đại Lý Bia Nước Giải Khát 83",
    "id": "here:pds:place:704jx7ps-8b8104970e9a07054cf7b0ebdaeaaee1",
    "resultType": "place",
    "address": {
      "label": "Đại Lý Bia Nước Giải Khát 83, 83 Đường Vạn Kiếp, Phường 3, Quận Bình Thạnh, Hồ Chí Minh, Việt Nam",
      "countryCode": "VNM",
      "countryName": "Việt Nam",
      "county": "Hồ Chí Minh",
      "city": "Quận Bình Thạnh",
      "district": "Phường 3",
      "street": "Đường Vạn Kiếp",
      "postalCode": "72317",
      "houseNumber": "83"
    },
    "position": {
      "lat": 10.79929,
      "lng": 106.69372
    },
    "access": [
      {
        "lat": 10.79928,
        "lng": 106.69361
      }
    ],
    "distance": 226,
    "categories": [
      {
        "id": "600-6300-0066",
        "name": "Siêu thị",
        "primary": true
      },
      {
        "id": "600-6000-0061",
        "name": "Cửa hàng tiện lợi",
        "primary": false
      }
    ]
  },
  {
    "title": "Ngân Hàng TMCP Dầu Khí Toàn Cầu",
    "id": "here:pds:place:704xjxn4-f7ce84221e430a46bb8aadcaeb2ff92f",
    "resultType": "place",
    "address": {
      "label": "Ngân Hàng TMCP Dầu Khí Toàn Cầu, 49 Đường Phan Đăng Lưu, Phường 14, Quận Bình Thạnh, Hồ Chí Minh, Việt Nam",
      "countryCode": "VNM",
      "countryName": "Việt Nam",
      "county": "Hồ Chí Minh",
      "city": "Quận Bình Thạnh",
      "district": "Phường 14",
      "street": "Đường Phan Đăng Lưu",
      "postalCode": "72306",
      "houseNumber": "49"
    },
    "position": {
      "lat": 10.80264,
      "lng": 106.69592
    },
    "access": [
      {
        "lat": 10.80271,
        "lng": 106.69593
      }
    ],
    "distance": 241,
    "categories": [
      {
        "id": "700-7000-0107",
        "name": "Ngân hàng",
        "primary": true
      }
    ]
  },
  {
    "title": "31A Nguyễn Huy Lượng, Phường 14, Quận Bình Thạnh.",
    "id": "here:pds:place:704w3gv7-593a1b943e394e6a9dc142454030ea85",
    "resultType": "place",
    "address": {
      "label": "31A Nguyễn Huy Lượng, Phường 14, Quận Bình Thạnh., 31A Đường Nguyễn Huy Lượng, Phường 14, Quận Bình Thạnh, Hồ Chí Minh, Việt Nam",
      "countryCode": "VNM",
      "countryName": "Việt Nam",
      "county": "Hồ Chí Minh",
      "city": "Quận Bình Thạnh",
      "district": "Phường 14",
      "street": "Đường Nguyễn Huy Lượng",
      "postalCode": "72306",
      "houseNumber": "31A"
    },
    "position": {
      "lat": 10.80561,
      "lng": 106.69643
    },
    "access": [
      {
        "lat": 10.80566,
        "lng": 106.69642
      }
    ],
    "distance": 560,
    "categories": [
      {
        "id": "600-6900-0103",
        "name": "Quà tặng, đồ cổ và tác phẩm nghệ thuật",
        "primary": true
      },
      {
        "id": "600-6400-0069",
        "name": "Nhà thuốc",
        "primary": false
      },
      {
        "id": "600-6900-0096",
        "name": "Cửa hàng chuyên dụng",
        "primary": false
      }
    ]
  },
  {
    "title": "T \u0026 K Shop - Mỹ Phẩm Chính Hãng",
    "id": "here:pds:place:704jx7ps-d2307365049005fb451c1e5ce02a4eaf",
    "resultType": "place",
    "address": {
      "label": "T \u0026 K Shop - Mỹ Phẩm Chính Hãng, 252 Đường Phan Xích Long, Phường 2, Quận Phú Nhuận, Hồ Chí Minh, Việt Nam",
      "countryCode": "VNM",
      "countryName": "Việt Nam",
      "county": "Hồ Chí Minh",
      "city": "Quận Phú Nhuận",
      "district": "Phường 2",
      "street": "Đường Phan Xích Long",
      "postalCode": "72210",
      "houseNumber": "252"
    },
    "position": {
      "lat": 10.79725,
      "lng": 106.69077
    },
    "access": [
      {
        "lat": 10.79731,
        "lng": 106.69077
      }
    ],
    "distance": 739,
    "categories": [
      {
        "id": "600-6900-0103",
        "name": "Quà tặng, đồ cổ và tác phẩm nghệ thuật",
        "primary": true
      },
      {
        "id": "600-6950-0000",
        "name": "Cắt tóc \u0026 Tạo mẫu",
        "primary": false
      }
    ]
  },
  {
    "title": "Zenith Rooftop",
    "id": "here:pds:place:704w3gvk-1867f43e44a74a2155327fa78df3c0cf",
    "resultType": "place",
    "address": {
      "label": "Zenith Rooftop, 390 Đường Xô Viết Nghệ Tĩnh, Phường 25, Quận Bình Thạnh, Hồ Chí Minh, Việt Nam",
      "countryCode": "VNM",
      "countryName": "Việt Nam",
      "county": "Hồ Chí Minh",
      "city": "Quận Bình Thạnh",
      "district": "Phường 25",
      "street": "Đường Xô Viết Nghệ Tĩnh",
      "postalCode": "72308",
      "houseNumber": "390"
    },
    "position": {
      "lat": 10.80485,
      "lng": 106.71152
    },
    "access": [
      {
        "lat": 10.80485,
        "lng": 106.71147
      }
    ],
    "distance": 301,
    "categories": [
      {
        "id": "200-2000-0011",
        "name": "Bar hoặc Quán rượu",
        "primary": true
      }
    ]
  },
  {
    "title": "CT TNHH H.A.T Connecti",
    "id": "here:pds:place:704w3gv7-9db95b0cb53a48519b8d97e2149c406c",
    "resultType": "place",
    "address": {
      "label": "CT TNHH H.A.T Connecti, 3 Đường Điện Biên Phủ, Phường 25, Quận Bình Thạnh, Hồ Chí Minh, Việt Nam",
      "countryCode": "VNM",
      "countryName": "Việt Nam",
      "county": "Hồ Chí Minh",
      "city": "Quận Bình Thạnh",
      "district": "Phường 25",
      "street": "Đường Điện Biên Phủ",
      "postalCode": "72308",
      "houseNumber": "3"
    },
    "position": {
      "lat": 10.80186,
      "lng": 106.71334
    },
    "access": [
      {
        "lat": 10.80163,
        "lng": 106.71328
      }
    ],
    "distance": 444,
    "categories": [
      {
        "id": "200-2000-0011",
        "name": "Bar hoặc Quán rượu",
        "primary": true
      }
    ]
  },
  {
    "title": "Ballers Mini Golf",
    "id": "here:pds:place:704w3gvk-f9d6e1265e90998aafc9ee6accc97a40",
    "resultType": "place",
    "address": {
      "label": "Ballers Mini Golf, 2H Hẻm 236/29 Điện Biên Phủ, Phường 17, Quận Bình Thạnh, Hồ Chí Minh, Việt Nam",
      "countryCode": "VNM",
      "countryName": "Việt Nam",
      "county": "Hồ Chí Minh",
      "city": "Quận Bình Thạnh",
      "district": "Phường 17",
      "street": "Hẻm 236/29 Điện Biên Phủ",
      "postalCode": "72321",
      "houseNumber": "2H"
    },
    "position": {
      "lat": 10.79783,
      "lng": 106.70817
    },
    "access": [
      {
        "lat": 10.79795,
        "lng": 106.70749
      }
    ],
    "distance": 597,
    "categories": [
      {
        "id": "200-2000-0000",
        "name": "Giải trí về đêm",
        "primary": true
      },
      {
        "id": "200-2000-0011",
        "name": "Bar hoặc Quán rượu",
        "primary": false
      }
    ]
  },
  {
    "title": "Cửa Hàng Thời Trang Nam John Henry",
    "id": "here:pds:place:7041r4ve-b309c76929f50527378ab703465011c6",
    "resultType": "place",
    "address": {
      "label": "Cửa Hàng Thời Trang Nam John Henry, 322 Đường Xô Viết Nghệ Tĩnh, Phường 25, Quận Bình Thạnh, Hồ Chí Minh, Việt Nam",
      "countryCode": "VNM",
      "countryName": "Việt Nam",
      "county": "Hồ Chí Minh",
      "city": "Quận Bình Thạnh",
      "district": "Phường 25",
      "street": "Đường Xô Viết Nghệ Tĩnh",
      "postalCode": "72308",
      "houseNumber": "322"
    },
    "position": {
      "lat": 10.8031,
      "lng": 106.71146
    },
    "access": [
      {
        "lat": 10.80309,
        "lng": 106.71144
      }
    ],
    "distance": 219,
    "categories": [
      {
        "id": "600-6800-0000",
        "name": "Quần áo \u0026 Phụ kiện",
        "primary": true
      },
      {
        "id": "600-6800-0089",
        "name": "Quần áo nam",
        "primary": false
      }
    ]
  },
  {
    "title": "Avt Multi Trans",
    "id": "here:pds:place:704w3gvs-8e8ae4ae603883d03dcb5c3b4d0a42b0",
    "resultType": "place",
    "address": {
      "label": "Avt Multi Trans, 860 Đường Xô Viết Nghệ Tĩnh, Phường 25, Quận Bình Thạnh, Hồ Chí Minh, Việt Nam",
      "countryCode": "VNM",
      "countryName": "Việt Nam",
      "county": "Hồ Chí Minh",
      "city": "Quận Bình Thạnh",
      "district": "Phường 25",
      "street": "Đường Xô Viết Nghệ Tĩnh",
      "postalCode": "72308",
      "houseNumber": "860"
    },
    "position": {
      "lat": 10.81313,
      "lng": 106.71631
    },
    "access": [
      {
        "lat": 10.81317,
        "lng": 106.71628
      }
    ],
    "distance": 535,
    "categories": [
      {
        "id": "700-7450-0114",
        "name": "Bưu điện",
        "primary": true
      },
      {
        "id": "700-7250-0136",
        "name": "Doanh nghiệp",
        "primary": false
      }
    ]
  },
  {
    "title": "Chuyển Phát Nhanh J\u0026T Express",
    "id": "here:pds:place:704w3gvs-5e138c3e165f4eaa817b3bfe673c5278",
    "resultType": "place",
    "address": {
      "label": "Chuyển Phát Nhanh J\u0026T Express, 860 Đường Xô Viết Nghệ Tĩnh, Phường 25, Quận Bình Thạnh, Hồ Chí Minh, Việt Nam",
      "countryCode": "VNM",
      "countryName": "Việt Nam",
      "county": "Hồ Chí Minh",
      "city": "Quận Bình Thạnh",
      "district": "Phường 25",
      "street": "Đường Xô Viết Nghệ Tĩnh",
      "postalCode": "72308",
      "houseNumber": "860"
    },
    "position": {
      "lat": 10.8127,
      "lng": 106.71679
    },
    "access": [
      {
        "lat": 10.81313,
        "lng": 106.71644
      }
    ],
    "distance": 549,
    "categories": [
      {
        "id": "700-7450-0114",
        "name": "Bưu điện",
        "primary": true
      },
      {
        "id": "700-7250-0136",
        "name": "Doanh nghiệp",
        "primary": false
      },
      {
        "id": "900-9300-0221",
        "name": "Tòa nhà chung cư",
        "primary": false
      }
    ]
  },
  {
    "title": "Bún Bò Huế Kim Hưng",
    "id": "here:pds:place:704w3gvs-a8b12e95488e74bd943fbb311e1b07f6",
    "resultType": "place",
    "address": {
      "label": "Bún Bò Huế Kim Hưng, 172 Đường Nguyễn Xí, Phường 26, Quận Bình Thạnh, Hồ Chí Minh, Việt Nam",
      "countryCode": "VNM",
      "countryName": "Việt Nam",
      "county": "Hồ Chí Minh",
      "city": "Quận Bình Thạnh",
      "district": "Phường 26",
      "street": "Đường Nguyễn Xí",
      "postalCode": "72310",
      "houseNumber": "172"
    },
    "position": {
      "lat": 10.81509,
      "lng": 106.70797
    },
    "access": [
      {
        "lat": 10.81507,
        "lng": 106.70795
      }
    ],
    "distance": 255,
    "categories": [
      {
        "id": "600-6300-0064",
        "name": "Đặc sản \u0026 Đồ uống",
        "primary": true
      },
      {
        "id": "600-6900-0101",
        "name": "Hoa \u0026 Đồ trang sức",
        "primary": false
      }
    ]
  },
  {
    "title": "Laxas",
    "id": "here:pds:place:704w3gvs-3ed78a593ee0d2a51f724aacd23146da",
    "resultType": "place",
    "address": {
      "label": "Laxas, 28 Đường Số 1, Phường 26, Quận Bình Thạnh, Hồ Chí Minh, Việt Nam",
      "countryCode": "VNM",
      "countryName": "Việt Nam",
      "county": "Hồ Chí Minh",
      "city": "Quận Bình Thạnh",
      "district": "Phường 26",
      "street": "Đường Số 1",
      "postalCode": "72310",
      "houseNumber": "28"
    },
    "position": {
      "lat": 10.81133,
      "lng": 106.70788
    },
    "access": [
      {
        "lat": 10.8112,
        "lng": 106.70787
      }
    ],
    "distance": 287,
    "categories": [
      {
        "id": "600-6300-0064",
        "name": "Đặc sản \u0026 Đồ uống",
        "primary": true
      }
    ]
  },
  {
    "title": "Shop Thời Trang Nón Bảo Hiểm 223",
    "id": "here:pds:place:704jx7ps-2d7001b29e1006470d676a48bcf74931",
    "resultType": "place",
    "address": {
      "label": "Shop Thời Trang Nón Bảo Hiểm 223, 223 Đường Đinh Bộ Lĩnh, Phường 26, Quận Bình Thạnh, Hồ Chí Minh, Việt Nam",
      "countryCode": "VNM",
      "countryName": "Việt Nam",
      "county": "Hồ Chí Minh",
      "city": "Quận Bình Thạnh",
      "district": "Phường 26",
      "street": "Đường Đinh Bộ Lĩnh",
      "postalCode": "72310",
      "houseNumber": "223"
    },
    "position": {
      "lat": 10.81096,
      "lng": 106.70913
    },
    "access": [
      {
        "lat": 10.81096,
        "lng": 106.70914
      }
    ],
    "distance": 270,
    "categories": [
      {
        "id": "600-6800-0000",
        "name": "Quần áo \u0026 Phụ kiện",
        "primary": true
      },
      {
        "id": "600-6900-0000",
        "name": "Hàng tiêu dùng",
        "primary": false
      },
      {
        "id": "600-6900-0101",
        "name": "Hoa \u0026 Đồ trang sức",
        "primary": false
      }
    ]
  },
  {
    "title": "Fashion Đình Thy",
    "id": "here:pds:place:704w3gvs-8d43502bec07423ecf85195435639c60",
    "resultType": "place",
    "address": {
      "label": "Fashion Đình Thy, 98 Quốc Lộ 13, Phường 26, Quận Bình Thạnh, Hồ Chí Minh, Việt Nam",
      "countryCode": "VNM",
      "countryName": "Việt Nam",
      "county": "Hồ Chí Minh",
      "city": "Quận Bình Thạnh",
      "district": "Phường 26",
      "street": "Quốc Lộ 13",
      "postalCode": "72310",
      "houseNumber": "98"
    },
    "position": {
      "lat": 10.81274,
      "lng": 106.7128
    },
    "access": [
      {
        "lat": 10.81276,
        "lng": 106.71261
      }
    ],
    "distance": 367,
    "categories": [
      {
        "id": "600-6800-0000",
        "name": "Quần áo \u0026 Phụ kiện",
        "primary": true
      }
    ]
  },
  {
    "title": "Hoàng Yến",
    "id": "here:pds:place:704w3gvs-2d842840d1094c91ce5f62467723d4d6",
    "resultType": "place",
    "address": {
      "label": "Hoàng Yến, 172 Quốc Lộ 13, Phường 26, Quận Bình Thạnh, Hồ Chí Minh, Việt Nam",
      "countryCode": "VNM",
      "countryName": "Việt Nam",
      "county": "Hồ Chí Minh",
      "city": "Quận Bình Thạnh",
      "district": "Phường 26",
      "street": "Quốc Lộ 13",
      "postalCode": "72310",
      "houseNumber": "172"
    },
    "position": {
      "lat": 10.81428,
      "lng": 106.71281
    },
    "access": [
      {
        "lat": 10.81428,
        "lng": 106.71278
      }
    ],
    "distance": 376,
    "categories": [
      {
        "id": "600-6800-0000",
        "name": "Quần áo \u0026 Phụ kiện",
        "primary": true
      }
    ]
  },
  {
    "title": "Xe Chất Lượng Cao Thuận Thảo",
    "id": "here:pds:place:7041r4ve-d51b8255961f0fdbde42f93e52af50a9",
    "resultType": "place",
    "address": {
      "label": "Xe Chất Lượng Cao Thuận Thảo, 196 Quốc Lộ 13, Phường 26, Quận Bình Thạnh, Hồ Chí Minh, Việt Nam",
      "countryCode": "VNM",
      "countryName": "Việt Nam",
      "county": "Hồ Chí Minh",
      "city": "Quận Bình Thạnh",
      "district": "Phường 26",
      "street": "Quốc Lộ 13",
      "postalCode": "72310",
      "houseNumber": "196"
    },
    "position": {
      "lat": 10.8151,
      "lng": 106.71292
    },
    "access": [
      {
        "lat": 10.8151,
        "lng": 106.71288
      }
    ],
    "distance": 1121,
    "categories": [
      {
        "id": "400-4100-0036",
        "name": "Trạm xe buýt",
        "primary": true
      },
      {
        "id": "400-4100-0041",
        "name": "Dịch vụ vận chuyển",
        "primary": false
      },
      {
        "id": "400-4100-0043",
        "name": "Giao thông công cộng tại địa phương hoặc khu vực",
        "primary": false
      }
    ]
  },
  {
    "title": "Cửa Hàng Tạp Hóa Thái Hưng",
    "id": "here:pds:place:704jx7ps-2b771b851f2405308176425849c71852",
    "resultType": "place",
    "address": {
      "label": "Cửa Hàng Tạp Hóa Thái Hưng, 250 Đường Nguyễn Xí, Phường 13, Quận Bình Thạnh, Hồ Chí Minh, Việt Nam",
      "countryCode": "VNM",
      "countryName": "Việt Nam",
      "county": "Hồ Chí Minh",
      "city": "Quận Bình Thạnh",
      "district": "Phường 13",
      "street": "Đường Nguyễn Xí",
      "postalCode": "72311",
      "houseNumber": "250"
    },
    "position": {
      "lat": 10.81816,
      "lng": 106.70517
    },
    "access": [
      {
        "lat": 10.81815,
        "lng": 106.70516
      }
    ],
    "distance": 242,
    "categories": [
      {
        "id": "600-6000-0061",
        "name": "Cửa hàng tiện lợi",
        "primary": true
      },
      {
        "id": "600-6200-0063",
        "name": "Cửa hàng bách hóa",
        "primary": false
      },
      {
        "id": "600-6900-0000",
        "name": "Hàng tiêu dùng",
        "primary": false
      }
    ]
  },
  {
    "title": "Cửa Hàng Văn Phòng Phẩm Tuấn Trang",
    "id": "here:pds:place:704w3gvs-27d468dd0592d290ca0cc5ed2bcdb7a4",
    "resultType": "place",
    "address": {
      "label": "Cửa Hàng Văn Phòng Phẩm Tuấn Trang, 36 Đường Số 8, Phường 26, Quận Bình Thạnh, Hồ Chí Minh, Việt Nam",
      "countryCode": "VNM",
      "countryName": "Việt Nam",
      "county": "Hồ Chí Minh",
      "city": "Quận Bình Thạnh",
      "district": "Phường 26",
      "street": "Đường Số 8",
      "postalCode": "72310",
      "houseNumber": "36"
    },
    "position": {
      "lat": 10.8122,
      "lng": 106.70677
    },
    "access": [
      {
        "lat": 10.8122,
        "lng": 106.70671
      }
    ],
    "distance": 631,
    "categories": [
      {
        "id": "600-6100-0062",
        "name": "Trung tâm mua sắm hoặc trung tâm thương mại",
        "primary": true
      }
    ]
  },
  {
    "title": "Vincom Plaza",
    "id": "here:pds:place:704w3gvs-b0fbea2e116745da94d02b75b334a168",
    "resultType": "place",
    "address": {
      "label": "Vincom Plaza, 188 Đường Nguyễn Xí, Phường 26, Quận Bình Thạnh, Hồ Chí Minh, Việt Nam",
      "countryCode": "VNM",
      "countryName": "Việt Nam",
      "county": "Hồ Chí Minh",
      "city": "Quận Bình Thạnh",
      "district": "Phường 26",
      "street": "Đường Nguyễn Xí",
      "postalCode": "72310",
      "houseNumber": "188"
    },
    "position": {
      "lat": 10.81616,
      "lng": 106.70723
    },
    "access": [
      {
        "lat": 10.81613,
        "lng": 106.70719
      }
    ],
    "distance": 881,
    "categories": [
      {
        "id": "600-6100-0062",
        "name": "Trung tâm mua sắm hoặc trung tâm thương mại",
        "primary": true
      }
    ]
  },
  {
    "title": "Điểm Dừng Xe Buýt",
    "id": "here:pds:place:704w3gvk-24ed1c67799ea6956d8222c331c9289c",
    "resultType": "place",
    "address": {
      "label": "Điểm Dừng Xe Buýt, 24 Đường Đinh Bộ Lĩnh, Phường 15, Quận Bình Thạnh, Hồ Chí Minh, Việt Nam",
      "countryCode": "VNM",
      "countryName": "Việt Nam",
      "county": "Hồ Chí Minh",
      "city": "Quận Bình Thạnh",
      "district": "Phường 15",
      "street": "Đường Đinh Bộ Lĩnh",
      "postalCode": "72320",
      "houseNumber": "24"
    },
    "position": {
      "lat": 10.80148,
      "lng": 106.70911
    },
    "access": [
      {
        "lat": 10.80148,
        "lng": 106.70935
      }
    ],
    "distance": 1370,
    "categories": [
      {
        "id": "400-4100-0036",
        "name": "Trạm xe buýt",
        "primary": true
      }
    ]
  },
  {
    "title": "Family Mart",
    "id": "here:pds:place:704jx7ps-df5dad99f4960d3e80d10190daf09494",
    "resultType": "place",
    "address": {
      "label": "Family Mart, 188E Đường Phan Văn Trị, Phường 12, Quận Bình Thạnh, Hồ Chí Minh, Việt Nam",
      "countryCode": "VNM",
      "countryName": "Việt Nam",
      "county": "Hồ Chí Minh",
      "city": "Quận Bình Thạnh",
      "district": "Phường 12",
      "street": "Đường Phan Văn Trị",
      "postalCode": "72312",
      "houseNumber": "188E"
    },
    "position": {
      "lat": 10.81304,
      "lng": 106.69559
    },
    "access": [
      {
        "lat": 10.81308,
        "lng": 106.69558
      }
    ],
    "distance": 206,
    "categories": [
      {
        "id": "600-6000-0061",
        "name": "Cửa hàng tiện lợi",
        "primary": true
      }
    ]
  },
  {
    "title": "Bách Hóa 69",
    "id": "here:pds:place:704jx7ps-85eb2271ab44046cb6436ccbef3da1e1",
    "resultType": "place",
    "address": {
      "label": "Bách Hóa 69, 69 Đường Nơ Trang Long, Phường 11, Quận Bình Thạnh, Hồ Chí Minh, Việt Nam",
      "countryCode": "VNM",
      "countryName": "Việt Nam",
      "county": "Hồ Chí Minh",
      "city": "Quận Bình Thạnh",
      "district": "Phường 11",
      "street": "Đường Nơ Trang Long",
      "postalCode": "72313",
      "houseNumber": "69"
    },
    "position": {
      "lat": 10.80899,
      "lng": 106.69509
    },
    "access": [
      {
        "lat": 10.80899,
        "lng": 106.69511
      }
    ],
    "distance": 251,
    "categories": [
      {
        "id": "600-6000-0061",
        "name": "Cửa hàng tiện lợi",
        "primary": true
      }
    ]
  },
  {
    "title": "Satrafoods 167A Nơ Trang Long",
    "id": "here:pds:place:704w3gve-8934be8c032cce2549afef2b6d56acb3",
    "resultType": "place",
    "address": {
      "label": "Satrafoods 167A Nơ Trang Long, 167A Đường Nơ Trang Long, Phường 12, Quận Bình Thạnh, Hồ Chí Minh, Việt Nam",
      "countryCode": "VNM",
      "countryName": "Việt Nam",
      "county": "Hồ Chí Minh",
      "city": "Quận Bình Thạnh",
      "district": "Phường 12",
      "street": "Đường Nơ Trang Long",
      "postalCode": "72312",
      "houseNumber": "167A"
    },
    "position": {
      "lat": 10.81341,
      "lng": 106.69697
    },
    "access": [
      {
        "lat": 10.81331,
        "lng": 106.6971
      }
    ],
    "distance": 288,
    "categories": [
      {
        "id": "600-6000-0061",
        "name": "Cửa hàng tiện lợi",
        "primary": true
      }
    ]
  },
  {
    "title": "Văn Hóa Phẩm Phật Giáo Hoàng Hạc Lâu",
    "id": "here:pds:place:704w3gve-b31833b9738e7df74df4cfaeadb3c903",
    "resultType": "place",
    "address": {
      "label": "Văn Hóa Phẩm Phật Giáo Hoàng Hạc Lâu, 10D Đường Nguyễn Trung Trực, Phường 5, Quận Bình Thạnh, Hồ Chí Minh, Việt Nam",
      "countryCode": "VNM",
      "countryName": "Việt Nam",
      "county": "Hồ Chí Minh",
      "city": "Quận Bình Thạnh",
      "district": "Phường 5",
      "street": "Đường Nguyễn Trung Trực",
      "postalCode": "72314",
      "houseNumber": "10D"
    },
    "position": {
      "lat": 10.81241,
      "lng": 106.68642
    },
    "access": [
      {
        "lat": 10.81239,
        "lng": 106.68644
      }
    ],
    "distance": 422,
    "categories": [
      {
        "id": "600-6900-0103",
        "name": "Quà tặng, đồ cổ và tác phẩm nghệ thuật",
        "primary": true
      }
    ]
  },
  {
    "title": "Cửa Hàng S \u0026 T Laminage",
    "id": "here:pds:place:7041r4ve-4e47652bf4d909c355884d555fb99958",
    "resultType": "place",
    "address": {
      "label": "Cửa Hàng S \u0026 T Laminage, 39 Đường Nguyên Hồng, Phường 1, Quận Gò Vấp, Hồ Chí Minh, Việt Nam",
      "countryCode": "VNM",
      "countryName": "Việt Nam",
      "county": "Hồ Chí Minh",
      "city": "Quận Gò Vấp",
      "district": "Phường 1",
      "street": "Đường Nguyên Hồng",
      "postalCode": "71410",
      "houseNumber": "39"
    },
    "position": {
      "lat": 10.81809,
      "lng": 106.69174
    },
    "access": [
      {
        "lat": 10.81812,
        "lng": 106.69197
      }
    ],
    "distance": 442,
    "categories": [
      {
        "id": "600-6900-0103",
        "name": "Quà tặng, đồ cổ và tác phẩm nghệ thuật",
        "primary": true
      },
      {
        "id": "700-7200-0328",
        "name": "Dịch vụ B2B",
        "primary": false
      }
    ]
  },
  {
    "title": "Shop Lusu",
    "id": "here:pds:place:7041r4ve-4383d22f9e0d082bcf4a4b45ed0d1137",
    "resultType": "place",
    "address": {
      "label": "Shop Lusu, 92 Đường Lê Lợi, Phường 4, Quận Gò Vấp, Hồ Chí Minh, Việt Nam",
      "countryCode": "VNM",
      "countryName": "Việt Nam",
      "county": "Hồ Chí Minh",
      "city": "Quận Gò Vấp",
      "district": "Phường 4",
      "street": "Đường Lê Lợi",
      "postalCode": "71408",
      "houseNumber": "92"
    },
    "position": {
      "lat": 10.81951,
      "lng": 106.68573
    },
    "access": [
      {
        "lat": 10.81982,
        "lng": 106.68609
      }
    ],
    "distance": 549,
    "categories": [
      {
        "id": "600-6900-0103",
        "name": "Quà tặng, đồ cổ và tác phẩm nghệ thuật",
        "primary": true
      },
      {
        "id": "600-6900-0000",
        "name": "Hàng tiêu dùng",
        "primary": false
      },
      {
        "id": "600-6900-0096",
        "name": "Cửa hàng chuyên dụng",
        "primary": false
      }
    ]
  },
  {
    "title": "Cháo Lòng",
    "id": "here:pds:place:704w3gve-6f874ad772bd1d9829cfa1ccc3e907d2",
    "resultType": "place",
    "address": {
      "label": "Cháo Lòng, 15 Đường Nguyễn Thượng Hiền, Phường 5, Quận Bình Thạnh, Hồ Chí Minh, Việt Nam",
      "countryCode": "VNM",
      "countryName": "Việt Nam",
      "county": "Hồ Chí Minh",
      "city": "Quận Bình Thạnh",
      "district": "Phường 5",
      "street": "Đường Nguyễn Thượng Hiền",
      "postalCode": "72314",
      "houseNumber": "15"
    },
    "position": {
      "lat": 10.81285,
      "lng": 106.68563
    },
    "access": [
      {
        "lat": 10.81303,
        "lng": 106.68554
      }
    ],
    "distance": 220,
    "categories": [
      {
        "id": "600-6300-0064",
        "name": "Đặc sản \u0026 Đồ uống",
        "primary": true
      },
      {
        "id": "100-1000-0000",
        "name": "Nhà hàng",
        "primary": false
      },
      {
        "id": "600-6300-0244",
        "name": "Hiệu bánh",
        "primary": false
      }
    ]
  },
  {
    "title": "Sum-HKD T.T.Huy",
    "id": "here:pds:place:704w3gve-ce2e972398384771bcc036fbc161f6df",
    "resultType": "place",
    "address": {
      "label": "Sum-HKD T.T.Huy, 51 Hẻm 1 Đường Trần Bình Trọng, Phường 5, Quận Bình Thạnh, Hồ Chí Minh, Việt Nam",
      "countryCode": "VNM",
      "countryName": "Việt Nam",
      "county": "Hồ Chí Minh",
      "city": "Quận Bình Thạnh",
      "district": "Phường 5",
      "street": "Hẻm 1 Đường Trần Bình Trọng",
      "postalCode": "72314",
      "houseNumber": "51"
    },
    "position": {
      "lat": 10.81284,
      "lng": 106.68774
    },
    "access": [
      {
        "lat": 10.81287,
        "lng": 106.68778
      }
    ],
    "distance": 206,
    "categories": [
      {
        "id": "600-6800-0000",
        "name": "Quần áo \u0026 Phụ kiện",
        "primary": true
      }
    ]
  },
  {
    "title": "Gà Ác Tiềm Thuốc Bắc Hoàng Cung",
    "id": "here:pds:place:704w3gv7-9261ff8216268d166bf0a71e5cbe18f0",
    "resultType": "place",
    "address": {
      "label": "Gà Ác Tiềm Thuốc Bắc Hoàng Cung, 21C4 Đường Lê Trực, Phường 7, Quận Bình Thạnh, Hồ Chí Minh, Việt Nam",
      "countryCode": "VNM",
      "countryName": "Việt Nam",
      "county": "Hồ Chí Minh",
      "city": "Quận Bình Thạnh",
      "district": "Phường 7",
      "street": "Đường Lê Trực",
      "postalCode": "72316",
      "houseNumber": "21C4"
    },
    "position": {
      "lat": 10.80903,
      "lng": 106.69124
    },
    "access": [
      {
        "lat": 10.80929,
        "lng": 106.69131
      }
    ],
    "distance": 213,
    "categories": [
      {
        "id": "600-6300-0064",
        "name": "Đặc sản \u0026 Đồ uống",
        "primary": true
      }
    ]
  },
  {
    "title": "Cửa Hàng Tạp Hóa Mai Hương",
    "id": "here:pds:place:704jx7ps-a342717117f60498a6b47112f867209a",
    "resultType": "place",
    "address": {
      "label": "Cửa Hàng Tạp Hóa Mai Hương, 46E Đường Nguyễn Văn Đậu, Phường 6, Quận Bình Thạnh, Hồ Chí Minh, Việt Nam",
      "countryCode": "VNM",
      "countryName": "Việt Nam",
      "county": "Hồ Chí Minh",
      "city": "Quận Bình Thạnh",
      "district": "Phường 6",
      "street": "Đường Nguyễn Văn Đậu",
      "postalCode": "72315",
      "houseNumber": "46E"
    },
    "position": {
      "lat": 10.80663,
      "lng": 106.68728
    },
    "access": [
      {
        "lat": 10.80688,
        "lng": 106.68725
      }
    ],
    "distance": 207,
    "categories": [
      {
        "id": "600-6000-0061",
        "name": "Cửa hàng tiện lợi",
        "primary": true
      },
      {
        "id": "600-6200-0063",
        "name": "Cửa hàng bách hóa",
        "primary": false
      },
      {
        "id": "600-6300-0066",
        "name": "Siêu thị",
        "primary": false
      }
    ]
  },
  {
    "title": "Cô Hợi",
    "id": "here:pds:place:7041r4ve-a30ddab4416109748b1a1caf7bfa36cd",
    "resultType": "place",
    "address": {
      "label": "Cô Hợi, 189 Đường Hoàng Hoa Thám, Phường 5, Quận Bình Thạnh, Hồ Chí Minh, Việt Nam",
      "countryCode": "VNM",
      "countryName": "Việt Nam",
      "county": "Hồ Chí Minh",
      "city": "Quận Bình Thạnh",
      "district": "Phường 5",
      "street": "Đường Hoàng Hoa Thám",
      "postalCode": "72314",
      "houseNumber": "189"
    },
    "position": {
      "lat": 10.80899,
      "lng": 106.68581
    },
    "access": [
      {
        "lat": 10.80907,
        "lng": 106.68565
      }
    ],
    "distance": 253,
    "categories": [
      {
        "id": "600-6000-0061",
        "name": "Cửa hàng tiện lợi",
        "primary": true
      },
      {
        "id": "600-6200-0063",
        "name": "Cửa hàng bách hóa",
        "primary": false
      }
    ]
  },
  {
    "title": "Family Mart",
    "id": "here:pds:place:704w3gv7-2bd55ae8dfd189eaf3e9dde7693ab971",
    "resultType": "place",
    "address": {
      "label": "Family Mart, 36 Đường Nguyễn Văn Đậu, Phường 5, Quận Phú Nhuận, Hồ Chí Minh, Việt Nam",
      "countryCode": "VNM",
      "countryName": "Việt Nam",
      "county": "Hồ Chí Minh",
      "city": "Quận Phú Nhuận",
      "district": "Phường 5",
      "street": "Đường Nguyễn Văn Đậu",
      "postalCode": "72215",
      "houseNumber": "36"
    },
    "position": {
      "lat": 10.80548,
      "lng": 106.68712
    },
    "access": [
      {
        "lat": 10.80548,
        "lng": 106.68706
      }
    ],
    "distance": 333,
    "categories": [
      {
        "id": "600-6000-0061",
        "name": "Cửa hàng tiện lợi",
        "primary": true
      }
    ]
  },
  {
    "title": "Chuyển Phát Nhanh Futa Express",
    "id": "here:pds:place:704w3gv7-eff3a71ad40a4b6e9128059324695957",
    "resultType": "place",
    "address": {
      "label": "Chuyển Phát Nhanh Futa Express, 51A Đường Phan Đăng Lưu, Phường 6, Quận Bình Thạnh, Hồ Chí Minh, Việt Nam",
      "countryCode": "VNM",
      "countryName": "Việt Nam",
      "county": "Hồ Chí Minh",
      "city": "Quận Bình Thạnh",
      "district": "Phường 6",
      "street": "Đường Phan Đăng Lưu",
      "postalCode": "72315",
      "houseNumber": "51A"
    },
    "position": {
      "lat": 10.8034,
      "lng": 106.68954
    },
    "access": [
      {
        "lat": 10.80352,
        "lng": 106.68954
      }
    ],
    "distance": 574,
    "categories": [
      {
        "id": "700-7450-0114",
        "name": "Bưu điện",
        "primary": true
      },
      {
        "id": "600-6900-0095",
        "name": "Dụng cụ văn phòng và dịch vụ",
        "primary": false
      }
    ]
  },
  {
    "title": "Cty TNHH MTV VH Đại Việt Á",
    "id": "here:pds:place:7041r4ve-53d755defa9b084d34be948b6ee748d5",
    "resultType": "place",
    "address": {
      "label": "Cty TNHH MTV VH Đại Việt Á, 167A Đường Thích Quảng Đức, Phường 5, Quận Phú Nhuận, Hồ Chí Minh, Việt Nam",
      "countryCode": "VNM",
      "countryName": "Việt Nam",
      "county": "Hồ Chí Minh",
      "city": "Quận Phú Nhuận",
      "district": "Phường 5",
      "street": "Đường Thích Quảng Đức",
      "postalCode": "72215",
      "houseNumber": "167A"
    },
    "position": {
      "lat": 10.80656,
      "lng": 106.6806
    },
    "access": [
      {
        "lat": 10.80663,
        "lng": 106.68066
      }
    ],
    "distance": 835,
    "categories": [
      {
        "id": "700-7250-0136",
        "name": "Doanh nghiệp",
        "primary": true
      },
      {
        "id": "600-6900-0096",
        "name": "Cửa hàng chuyên dụng",
        "primary": false
      },
      {
        "id": "700-7400-0133",
        "name": "Đại lý du lịch \u0026 Vé",
        "primary": false
      },
      {
        "id": "700-7400-0141",
        "name": "Dịch vụ kinh doanh",
        "primary": false
      },
      {
        "id": "700-7450-0114",
        "name": "Bưu điện",
        "primary": false
      }
    ]
  },
  {
    "title": "Vivanshop-Sỉ \u0026 Lẻ Túi Xách",
    "id": "here:pds:place:704w3gve-0aef39e14fbc41c1b40f7df4d33b5cc7",
    "resultType": "place",
    "address": {
      "label": "Vivanshop-Sỉ \u0026 Lẻ Túi Xách, 6 Hẻm 1 Nguyễn Trung Trực, Phường 5, Quận Bình Thạnh, Hồ Chí Minh, Việt Nam",
      "countryCode": "VNM",
      "countryName": "Việt Nam",
      "county": "Hồ Chí Minh",
      "city": "Quận Bình Thạnh",
      "district": "Phường 5",
      "street": "Hẻm 1 Nguyễn Trung Trực",
      "postalCode": "72314",
      "houseNumber": "6"
    },
    "position": {
      "lat": 10.81261,
      "lng": 106.68724
    },
    "access": [
      {
        "lat": 10.81245,
        "lng": 106.68733
      }
    ],
    "distance": 468,
    "categories": [
      {
        "id": "600-6900-0096",
        "name": "Cửa hàng chuyên dụng",
        "primary": true
      },
      {
        "id": "600-6100-0062",
        "name": "Trung tâm mua sắm hoặc trung tâm thương mại",
        "primary": false
      },
      {
        "id": "600-6900-0000",
        "name": "Hàng tiêu dùng",
        "primary": false
      }
    ]
  },
  {
    "title": "Điểm Dừng Xe Buýt",
    "id": "here:pds:place:704w3gve-35de2a0ee015553f802c8cbdd2a2079e",
    "resultType": "place",
    "address": {
      "label": "Điểm Dừng Xe Buýt, 3 Đường Nguyễn Thái Sơn, Phường 4, Quận Gò Vấp, Hồ Chí Minh, Việt Nam",
      "countryCode": "VNM",
      "countryName": "Việt Nam",
      "county": "Hồ Chí Minh",
      "city": "Quận Gò Vấp",
      "district": "Phường 4",
      "street": "Đường Nguyễn Thái Sơn",
      "postalCode": "71408",
      "houseNumber": "3"
    },
    "position": {
      "lat": 10.81928,
      "lng": 106.68241
    },
    "access": [
      {
        "lat": 10.81917,
        "lng": 106.68256
      }
    ],
    "distance": 1054,
    "categories": [
      {
        "id": "400-4100-0036",
        "name": "Trạm xe buýt",
        "primary": true
      }
    ]
  },
  {
    "title": "Ngân Hàng Đông Nam Á",
    "id": "here:pds:place:704jx7ps-df001a70ad49067973b892b069043d38",
    "resultType": "place",
    "address": {
      "label": "Ngân Hàng Đông Nam Á, 312 Hẻm 308 Đường Nguyễn Thượng Hiền, Phường 5, Quận Phú Nhuận, Hồ Chí Minh, Việt Nam",
      "countryCode": "VNM",
      "countryName": "Việt Nam",
      "county": "Hồ Chí Minh",
      "city": "Quận Phú Nhuận",
      "district": "Phường 5",
      "street": "Hẻm 308 Đường Nguyễn Thượng Hiền",
      "postalCode": "72215",
      "houseNumber": "312"
    },
    "position": {
      "lat": 10.80585,
      "lng": 106.68548
    },
    "access": [
      {
        "lat": 10.8059,
        "lng": 106.6856
      }
    ],
    "distance": 552,
    "categories": [
      {
        "id": "700-7000-0107",
        "name": "Ngân hàng",
        "primary": true
      },
      {
        "id": "700-7010-0108",
        "name": "Máy rút tiền ATM",
        "primary": false
      }
    ]
  },
  {
    "title": "Ngân Hàng Đông Á",
    "id": "here:pds:place:704jx7ps-76c59fc2786609b5fa0edd1862de3eba",
    "resultType": "place",
    "address": {
      "label": "Ngân Hàng Đông Á, 577 Hẻm 750 Nguyễn Kiệm, Phường 9, Quận Phú Nhuận, Hồ Chí Minh, Việt Nam",
      "countryCode": "VNM",
      "countryName": "Việt Nam",
      "county": "Hồ Chí Minh",
      "city": "Quận Phú Nhuận",
      "district": "Phường 9",
      "street": "Hẻm 750 Nguyễn Kiệm",
      "postalCode": "72216",
      "houseNumber": "577"
    },
    "position": {
      "lat": 10.80965,
      "lng": 106.67841
    },
    "access": [
      {
        "lat": 10.80965,
        "lng": 106.67848
      }
    ],
    "distance": 658,
    "categories": [
      {
        "id": "700-7000-0107",
        "name": "Ngân hàng",
        "primary": true
      }
    ]
  },
  {
    "title": "MSB Coopmart Nguyễn Kiệm",
    "id": "here:pds:place:704w3gv7-72cb974ffd0e42cda488de5abce2cddd",
    "resultType": "place",
    "address": {
      "label": "MSB Coopmart Nguyễn Kiệm, 571 Đường Nguyễn Kiệm, Phường 9, Quận Phú Nhuận, Hồ Chí Minh, Việt Nam",
      "countryCode": "VNM",
      "countryName": "Việt Nam",
      "county": "Hồ Chí Minh",
      "city": "Quận Phú Nhuận",
      "district": "Phường 9",
      "street": "Đường Nguyễn Kiệm",
      "postalCode": "72216",
      "houseNumber": "571"
    },
    "position": {
      "lat": 10.80868,
      "lng": 106.67844
    },
    "access": [
      {
        "lat": 10.80868,
        "lng": 106.67845
      }
    ],
    "distance": 682,
    "categories": [
      {
        "id": "700-7000-0107",
        "name": "Ngân hàng",
        "primary": true
      }
    ]
  },
  {
    "title": "J \u0026 T Express",
    "id": "here:pds:place:704w3gve-6500d71f03021c3616e52d2551c85904",
    "resultType": "place",
    "address": {
      "label": "J \u0026 T Express, 11 Đường Nguyễn Văn Đậu, Phường 5, Quận Bình Thạnh, Hồ Chí Minh, Việt Nam",
      "countryCode": "VNM",
      "countryName": "Việt Nam",
      "county": "Hồ Chí Minh",
      "city": "Quận Bình Thạnh",
      "district": "Phường 5",
      "street": "Đường Nguyễn Văn Đậu",
      "postalCode": "72314",
      "houseNumber": "11"
    },
    "position": {
      "lat": 10.8101,
      "lng": 106.68786
    },
    "access": [
      {
        "lat": 10.81006,
        "lng": 106.6879
      }
    ],
    "distance": 390,
    "categories": [
      {
        "id": "700-7450-0114",
        "name": "Bưu điện",
        "primary": true
      }
    ]
  },
  {
    "title": "Cửa Hàng ĐTDĐ Ngọc",
    "id": "here:pds:place:704jx7ps-e50a3c1f55590ddb3a5df756bf4727c3",
    "resultType": "place",
    "address": {
      "label": "Cửa Hàng ĐTDĐ Ngọc, 750B Đường Nguyễn Kiệm, Phường 9, Quận Phú Nhuận, Hồ Chí Minh, Việt Nam",
      "countryCode": "VNM",
      "countryName": "Việt Nam",
      "county": "Hồ Chí Minh",
      "city": "Quận Phú Nhuận",
      "district": "Phường 9",
      "street": "Đường Nguyễn Kiệm",
      "postalCode": "72216",
      "houseNumber": "750B"
    },
    "position": {
      "lat": 10.81022,
      "lng": 106.67869
    },
    "access": [
      {
        "lat": 10.81022,
        "lng": 106.67847
      }
    ],
    "distance": 619,
    "categories": [
      {
        "id": "600-6500-0072",
        "name": "Cửa hàng điện tử gia dụng",
        "primary": true
      },
      {
        "id": "700-7200-0275",
        "name": "Dịch vụ sửa chữa \u0026 bảo trì",
        "primary": false
      },
      {
        "id": "700-7450-0114",
        "name": "Bưu điện",
        "primary": false
      }
    ]
  },
  {
    "title": "Ninja Van",
    "id": "here:pds:place:704w3gve-b8c4e29cd6c394f78fef2fd1672059a0",
    "resultType": "place",
    "address": {
      "label": "Ninja Van, 778 Đường Nguyễn Kiệm, Phường 3, Quận Gò Vấp, Hồ Chí Minh, Việt Nam",
      "countryCode": "VNM",
      "countryName": "Việt Nam",
      "county": "Hồ Chí Minh",
      "city": "Quận Gò Vấp",
      "district": "Phường 3",
      "street": "Đường Nguyễn Kiệm",
      "postalCode": "71409",
      "houseNumber": "778"
    },
    "position": {
      "lat": 10.81167,
      "lng": 106.67864
    },
    "access": [
      {
        "lat": 10.81167,
        "lng": 106.6786
      }
    ],
    "distance": 632,
    "categories": [
      {
        "id": "700-7450-0114",
        "name": "Bưu điện",
        "primary": true
      }
    ]
  },
  {
    "title": "Cửa Hàng Tân Thiên Ân 2",
    "id": "here:pds:place:704w3gve-0efa76254258ef76e3f19869c50d9a9a",
    "resultType": "place",
    "address": {
      "label": "Cửa Hàng Tân Thiên Ân 2, 247 Đường Phạm Ngũ Lão, Phường 3, Quận Gò Vấp, Hồ Chí Minh, Việt Nam",
      "countryCode": "VNM",
      "countryName": "Việt Nam",
      "county": "Hồ Chí Minh",
      "city": "Quận Gò Vấp",
      "district": "Phường 3",
      "street": "Đường Phạm Ngũ Lão",
      "postalCode": "71409",
      "houseNumber": "247"
    },
    "position": {
      "lat": 10.82119,
      "lng": 106.68302
    },
    "access": [
      {
        "lat": 10.82117,
        "lng": 106.683
      }
    ],
    "distance": 278,
    "categories": [
      {
        "id": "700-7450-0114",
        "name": "Bưu điện",
        "primary": true
      },
      {
        "id": "600-6500-0072",
        "name": "Cửa hàng điện tử gia dụng",
        "primary": false
      }
    ]
  },
  {
    "title": "Nous Sài Gòn Store Phan Văn Trị",
    "id": "here:pds:place:704w3gve-5b28a28ac51f4489bbf014d8b339466f",
    "resultType": "place",
    "address": {
      "label": "Nous Sài Gòn Store Phan Văn Trị, 713 Đường Phan Văn Trị, Phường 7, Quận Gò Vấp, Hồ Chí Minh, Việt Nam",
      "countryCode": "VNM",
      "countryName": "Việt Nam",
      "county": "Hồ Chí Minh",
      "city": "Quận Gò Vấp",
      "district": "Phường 7",
      "street": "Đường Phan Văn Trị",
      "postalCode": "71407",
      "houseNumber": "713"
    },
    "position": {
      "lat": 10.82792,
      "lng": 106.68625
    },
    "access": [
      {
        "lat": 10.82797,
        "lng": 106.68626
      }
    ],
    "distance": 1100,
    "categories": [
      {
        "id": "600-6100-0062",
        "name": "Trung tâm mua sắm hoặc trung tâm thương mại",
        "primary": true
      },
      {
        "id": "600-6300-0066",
        "name": "Siêu thị",
        "primary": false
      },
      {
        "id": "600-6800-0000",
        "name": "Quần áo \u0026 Phụ kiện",
        "primary": false
      },
      {
        "id": "600-6900-0096",
        "name": "Cửa hàng chuyên dụng",
        "primary": false
      },
      {
        "id": "600-6900-0356",
        "name": "Thợ kim hoàn",
        "primary": false
      },
      {
        "id": "600-6950-0000",
        "name": "Cắt tóc \u0026 Tạo mẫu",
        "primary": false
      },
      {
        "id": "800-8000-0161",
        "name": "Chuyên gia nhãn khoa",
        "primary": false
      }
    ]
  },
  {
    "title": "VINCOM Plaza-Phan Văn Trị",
    "id": "here:pds:place:704w3gve-420a880d4f8a4b0a9958b42f530d171c",
    "resultType": "place",
    "address": {
      "label": "VINCOM Plaza-Phan Văn Trị, 12 Đường Nguyễn Thái Sơn, Phường 7, Quận Gò Vấp, Hồ Chí Minh, Việt Nam",
      "countryCode": "VNM",
      "countryName": "Việt Nam",
      "county": "Hồ Chí Minh",
      "city": "Quận Gò Vấp",
      "district": "Phường 7",
      "street": "Đường Nguyễn Thái Sơn",
      "postalCode": "71407",
      "houseNumber": "12"
    },
    "position": {
      "lat": 10.82702,
      "lng": 106.68916
    },
    "access": [
      {
        "lat": 10.82681,
        "lng": 106.68907
      }
    ],
    "distance": 1176,
    "categories": [
      {
        "id": "600-6100-0062",
        "name": "Trung tâm mua sắm hoặc trung tâm thương mại",
        "primary": true
      }
    ]
  },
  {
    "title": "Haus of Royalty",
    "id": "here:pds:place:7046628e-44854f0edac9e3aafeba07fee135fcb2",
    "resultType": "place",
    "address": {
      "label": "Haus of Royalty, 102 Đường Phạm Ngũ Lão, Phường 3, Quận Gò Vấp, Hồ Chí Minh, Việt Nam",
      "countryCode": "VNM",
      "countryName": "Việt Nam",
      "county": "Hồ Chí Minh",
      "city": "Quận Gò Vấp",
      "district": "Phường 3",
      "street": "Đường Phạm Ngũ Lão",
      "postalCode": "71409",
      "houseNumber": "102"
    },
    "position": {
      "lat": 10.82279,
      "lng": 106.68227
    },
    "access": [
      {
        "lat": 10.82273,
        "lng": 106.68217
      }
    ],
    "distance": 384,
    "categories": [
      {
        "id": "200-2000-0011",
        "name": "Bar hoặc Quán rượu",
        "primary": true
      }
    ]
  },
  {
    "title": "Lâm Bô - Lẩu \u0026 Nướng",
    "id": "here:pds:place:704w3gve-ee87b8e7f32142e49f3e63b226f3298f",
    "resultType": "place",
    "address": {
      "label": "Lâm Bô - Lẩu \u0026 Nướng, 1 Đường Quang Trung, Phường 3, Quận Gò Vấp, Hồ Chí Minh, Việt Nam",
      "countryCode": "VNM",
      "countryName": "Việt Nam",
      "county": "Hồ Chí Minh",
      "city": "Quận Gò Vấp",
      "district": "Phường 3",
      "street": "Đường Quang Trung",
      "postalCode": "71409",
      "houseNumber": "1"
    },
    "position": {
      "lat": 10.8264,
      "lng": 106.67942
    },
    "access": [
      {
        "lat": 10.82652,
        "lng": 106.67953
      }
    ],
    "distance": 494,
    "categories": [
      {
        "id": "100-1000-0000",
        "name": "Nhà hàng",
        "primary": true
      },
      {
        "id": "100-1000-0001",
        "name": "Quán ăn bình dân",
        "primary": false
      },
      {
        "id": "200-2000-0011",
        "name": "Bar hoặc Quán rượu",
        "primary": false
      }
    ]
  },
  {
    "title": "Tax Beer \u0026 Food",
    "id": "here:pds:place:704w3gve-a252b12f9892155d8465b3331fd0709f",
    "resultType": "place",
    "address": {
      "label": "Tax Beer \u0026 Food, 129 Đường Phạm Văn Đồng, Phường 3, Quận Gò Vấp, Hồ Chí Minh, Việt Nam",
      "countryCode": "VNM",
      "countryName": "Việt Nam",
      "county": "Hồ Chí Minh",
      "city": "Quận Gò Vấp",
      "district": "Phường 3",
      "street": "Đường Phạm Văn Đồng",
      "postalCode": "71409",
      "houseNumber": "129"
    },
    "position": {
      "lat": 10.81684,
      "lng": 106.68384
    },
    "access": [
      {
        "lat": 10.8168,
        "lng": 106.68387
      }
    ],
    "distance": 791,
    "categories": [
      {
        "id": "200-2000-0011",
        "name": "Bar hoặc Quán rượu",
        "primary": true
      }
    ]
  },
  {
    "title": "Đức Lộc",
    "id": "here:pds:place:704w3gve-0b513232261e42e99eeb6b15380c4673",
    "resultType": "place",
    "address": {
      "label": "Đức Lộc, 73 Đường Nguyễn Văn Nghi, Phường 7, Quận Gò Vấp, Hồ Chí Minh, Việt Nam",
      "countryCode": "VNM",
      "countryName": "Việt Nam",
      "county": "Hồ Chí Minh",
      "city": "Quận Gò Vấp",
      "district": "Phường 7",
      "street": "Đường Nguyễn Văn Nghi",
      "postalCode": "71407",
      "houseNumber": "73"
    },
    "position": {
      "lat": 10.82542,
      "lng": 106.68451
    },
    "access": [
      {
        "lat": 10.82547,
        "lng": 106.68451
      }
    ],
    "distance": 726,
    "categories": [
      {
        "id": "600-6900-0103",
        "name": "Quà tặng, đồ cổ và tác phẩm nghệ thuật",
        "primary": true
      }
    ]
  },
  {
    "title": "Gốm Nhật Mộc An - Cửa Hàng Gốm Nhật Giá Rẻ Nhất Việt Nam.",
    "id": "here:pds:place:704w3gve-8ca8a955b43d45cfa1c8e6a135244896",
    "resultType": "place",
    "address": {
      "label": "Gốm Nhật Mộc An - Cửa Hàng Gốm Nhật Giá Rẻ Nhất Việt Nam., 18 Đường Nguyễn Thái Sơn, Phường 3, Quận Gò Vấp, Hồ Chí Minh, Việt Nam",
      "countryCode": "VNM",
      "countryName": "Việt Nam",
      "county": "Hồ Chí Minh",
      "city": "Quận Gò Vấp",
      "district": "Phường 3",
      "street": "Đường Nguyễn Thái Sơn",
      "postalCode": "71409",
      "houseNumber": "18"
    },
    "position": {
      "lat": 10.815,
      "lng": 106.67935
    },
    "access": [
      {
        "lat": 10.81497,
        "lng": 106.67938
      }
    ],
    "distance": 779,
    "categories": [
      {
        "id": "600-6900-0103",
        "name": "Quà tặng, đồ cổ và tác phẩm nghệ thuật",
        "primary": true
      }
    ]
  },
  {
    "title": "Hoàn Mỹ",
    "id": "here:pds:place:7041r4ve-3d24ae993f7f00d5f502c655f773b612",
    "resultType": "place",
    "address": {
      "label": "Hoàn Mỹ, 115 Đường Nguyễn Văn Nghi, Phường 4, Quận Gò Vấp, Hồ Chí Minh, Việt Nam",
      "countryCode": "VNM",
      "countryName": "Việt Nam",
      "county": "Hồ Chí Minh",
      "city": "Quận Gò Vấp",
      "district": "Phường 4",
      "street": "Đường Nguyễn Văn Nghi",
      "postalCode": "71408",
      "houseNumber": "115"
    },
    "position": {
      "lat": 10.82475,
      "lng": 106.68567
    },
    "access": [
      {
        "lat": 10.82483,
        "lng": 106.68565
      }
    ],
    "distance": 806,
    "categories": [
      {
        "id": "600-6900-0103",
        "name": "Quà tặng, đồ cổ và tác phẩm nghệ thuật",
        "primary": true
      }
    ]
  },
  {
    "title": "Quán Ăn Nam Bắc",
    "id": "here:pds:place:704jx7ps-986e7a0a98870889115db485b2ecd000",
    "resultType": "place",
    "address": {
      "label": "Quán Ăn Nam Bắc, 12A1 Đường Bạch Đằng, Phường 2, Quận Tân Bình, Hồ Chí Minh, Việt Nam",
      "countryCode": "VNM",
      "countryName": "Việt Nam",
      "county": "Hồ Chí Minh",
      "city": "Quận Tân Bình",
      "district": "Phường 2",
      "street": "Đường Bạch Đằng",
      "postalCode": "72108",
      "houseNumber": "12A1"
    },
    "position": {
      "lat": 10.81525,
      "lng": 106.67009
    },
    "access": [
      {
        "lat": 10.81522,
        "lng": 106.67005
      }
    ],
    "distance": 724,
    "categories": [
      {
        "id": "200-2000-0011",
        "name": "Bar hoặc Quán rượu",
        "primary": true
      }
    ]
  },
  {
    "title": "Quán Xì Tin",
    "id": "here:pds:place:704w3gve-cdcb18d728aa4849a18e6faac447608a",
    "resultType": "place",
    "address": {
      "label": "Quán Xì Tin, 785 Đường Nguyễn Kiệm, Phường 3, Quận Gò Vấp, Hồ Chí Minh, Việt Nam",
      "countryCode": "VNM",
      "countryName": "Việt Nam",
      "county": "Hồ Chí Minh",
      "city": "Quận Gò Vấp",
      "district": "Phường 3",
      "street": "Đường Nguyễn Kiệm",
      "postalCode": "71409",
      "houseNumber": "785"
    },
    "position": {
      "lat": 10.81816,
      "lng": 106.67856
    },
    "access": [
      {
        "lat": 10.81815,
        "lng": 106.67881
      }
    ],
    "distance": 272,
    "categories": [
      {
        "id": "100-1000-0000",
        "name": "Nhà hàng",
        "primary": true
      },
      {
        "id": "100-1100-0010",
        "name": "Quán cà phê",
        "primary": false
      }
    ]
  },
  {
    "title": "Jatujak Retro Bar",
    "id": "here:pds:place:704w3gve-4f0621905707c93b5274c31c6fa5b9c2",
    "resultType": "place",
    "address": {
      "label": "Jatujak Retro Bar, 97 Hẻm 48 Đường Lam Sơn, Phường 2, Quận Tân Bình, Hồ Chí Minh, Việt Nam",
      "countryCode": "VNM",
      "countryName": "Việt Nam",
      "county": "Hồ Chí Minh",
      "city": "Quận Tân Bình",
      "district": "Phường 2",
      "street": "Hẻm 48 Đường Lam Sơn",
      "postalCode": "72108",
      "houseNumber": "97"
    },
    "position": {
      "lat": 10.813,
      "lng": 106.66708
    },
    "access": [
      {
        "lat": 10.81299,
        "lng": 106.66714
      }
    ],
    "distance": 984,
    "categories": [
      {
        "id": "200-2000-0011",
        "name": "Bar hoặc Quán rượu",
        "primary": true
      }
    ]
  },
  {
    "title": "Buffalo Cold Beer",
    "id": "here:pds:place:704w3gve-fa36ae2e35c448c395615d65ba067c7c",
    "resultType": "place",
    "address": {
      "label": "Buffalo Cold Beer, 159 Đường Phạm Văn Đồng, Phường 4, Quận Gò Vấp, Hồ Chí Minh, Việt Nam",
      "countryCode": "VNM",
      "countryName": "Việt Nam",
      "county": "Hồ Chí Minh",
      "city": "Quận Gò Vấp",
      "district": "Phường 4",
      "street": "Đường Phạm Văn Đồng",
      "postalCode": "71408",
      "houseNumber": "159"
    },
    "position": {
      "lat": 10.81763,
      "lng": 106.68517
    },
    "access": [
      {
        "lat": 10.81759,
        "lng": 106.68519
      }
    ],
    "distance": 1058,
    "categories": [
      {
        "id": "200-2000-0011",
        "name": "Bar hoặc Quán rượu",
        "primary": true
      },
      {
        "id": "600-6300-0068",
        "name": "Rượu bia",
        "primary": false
      }
    ]
  },
  {
    "title": "Hkdpham Thi Ngoc Huyen",
    "id": "here:pds:place:704e2513-b5d456e14dbf5dd8863257a8691a923f",
    "resultType": "place",
    "address": {
      "label": "Hkdpham Thi Ngoc Huyen, 68 Đường Hồng Hà, Phường 2, Quận Tân Bình, Hồ Chí Minh, Việt Nam",
      "countryCode": "VNM",
      "countryName": "Việt Nam",
      "county": "Hồ Chí Minh",
      "city": "Quận Tân Bình",
      "district": "Phường 2",
      "street": "Đường Hồng Hà",
      "postalCode": "72108",
      "houseNumber": "68"
    },
    "position": {
      "lat": 10.81335,
      "lng": 106.66518
    },
    "access": [
      {
        "lat": 10.81331,
        "lng": 106.66523
      }
    ],
    "distance": 1177,
    "categories": [
      {
        "id": "200-2000-0011",
        "name": "Bar hoặc Quán rượu",
        "primary": true
      }
    ]
  },
  {
    "title": "Nhà Xe Thanh Khuê",
    "id": "here:pds:place:704w3gve-91a03760a3f2853538ac4ea602579165",
    "resultType": "place",
    "address": {
      "label": "Nhà Xe Thanh Khuê, 2 Đường Bạch Đằng, Phường 2, Quận Tân Bình, Hồ Chí Minh, Việt Nam",
      "countryCode": "VNM",
      "countryName": "Việt Nam",
      "county": "Hồ Chí Minh",
      "city": "Quận Tân Bình",
      "district": "Phường 2",
      "street": "Đường Bạch Đằng",
      "postalCode": "72108",
      "houseNumber": "2"
    },
    "position": {
      "lat": 10.8171,
      "lng": 106.67221
    },
    "access": [
      {
        "lat": 10.81718,
        "lng": 106.67219
      }
    ],
    "distance": 436,
    "categories": [
      {
        "id": "700-7450-0114",
        "name": "Bưu điện",
        "primary": true
      }
    ]
  },
  {
    "title": "Cửa Hàng Tiện Lợi Vinmart Plus",
    "id": "here:pds:place:704w3gve-18b3550988d0f2de2c7091ab7978c434",
    "resultType": "place",
    "address": {
      "label": "Cửa Hàng Tiện Lợi Vinmart Plus, 58 Đường Hồng Hà, Phường 2, Quận Tân Bình, Hồ Chí Minh, Việt Nam",
      "countryCode": "VNM",
      "countryName": "Việt Nam",
      "county": "Hồ Chí Minh",
      "city": "Quận Tân Bình",
      "district": "Phường 2",
      "street": "Đường Hồng Hà",
      "postalCode": "72108",
      "houseNumber": "58"
    },
    "position": {
      "lat": 10.81313,
      "lng": 106.66819
    },
    "access": [
      {
        "lat": 10.81325,
        "lng": 106.6682
      }
    ],
    "distance": 499,
    "categories": [
      {
        "id": "600-6100-0062",
        "name": "Trung tâm mua sắm hoặc trung tâm thương mại",
        "primary": true
      },
      {
        "id": "600-6000-0061",
        "name": "Cửa hàng tiện lợi",
        "primary": false
      }
    ]
  },
  {
    "title": "VINCOM+-Sky Center",
    "id": "here:pds:place:704w3gv7-6b243367383041f5925155a7e97042c7",
    "resultType": "place",
    "address": {
      "label": "VINCOM+-Sky Center, 10 Đường Phổ Quang, Phường 2, Quận Tân Bình, Hồ Chí Minh, Việt Nam",
      "countryCode": "VNM",
      "countryName": "Việt Nam",
      "county": "Hồ Chí Minh",
      "city": "Quận Tân Bình",
      "district": "Phường 2",
      "street": "Đường Phổ Quang",
      "postalCode": "72108",
      "houseNumber": "10"
    },
    "position": {
      "lat": 10.80592,
      "lng": 106.66647
    },
    "access": [
      {
        "lat": 10.80591,
        "lng": 106.66663
      }
    ],
    "distance": 1293,
    "categories": [
      {
        "id": "600-6100-0062",
        "name": "Trung tâm mua sắm hoặc trung tâm thương mại",
        "primary": true
      }
    ]
  },
  {
    "title": "Vincom Plaza Quang Trung",
    "id": "here:pds:place:704w3gve-b6a66c3d0f344087b48e4d8a7e17953a",
    "resultType": "place",
    "address": {
      "label": "Vincom Plaza Quang Trung, 190 Đường Quang Trung, Phường 10, Quận Gò Vấp, Hồ Chí Minh, Việt Nam",
      "countryCode": "VNM",
      "countryName": "Việt Nam",
      "county": "Hồ Chí Minh",
      "city": "Quận Gò Vấp",
      "district": "Phường 10",
      "street": "Đường Quang Trung",
      "postalCode": "71406",
      "houseNumber": "190"
    },
    "position": {
      "lat": 10.82938,
      "lng": 106.67232
    },
    "access": [
      {
        "lat": 10.82928,
        "lng": 106.67238
      }
    ],
    "distance": 1423,
    "categories": [
      {
        "id": "600-6100-0062",
        "name": "Trung tâm mua sắm hoặc trung tâm thương mại",
        "primary": true
      }
    ]
  },
  {
    "title": "Quán Ốc Len",
    "id": "here:pds:place:704jx7ps-23fcf217c9ec0318779ba0ac51697b0e",
    "resultType": "place",
    "address": {
      "label": "Quán Ốc Len, B84 Đường Bạch Đằng, Phường 2, Quận Tân Bình, Hồ Chí Minh, Việt Nam",
      "countryCode": "VNM",
      "countryName": "Việt Nam",
      "county": "Hồ Chí Minh",
      "city": "Quận Tân Bình",
      "district": "Phường 2",
      "street": "Đường Bạch Đằng",
      "postalCode": "72108",
      "houseNumber": "B84"
    },
    "position": {
      "lat": 10.816,
      "lng": 106.6693
    },
    "access": [
      {
        "lat": 10.81612,
        "lng": 106.66946
      }
    ],
    "distance": 202,
    "categories": [
      {
        "id": "100-1000-0000",
        "name": "Nhà hàng",
        "primary": true
      }
    ]
  },
  {
    "title": "Rạp Tân Sơn Nhất",
    "id": "here:pds:place:704xjxn4-8135c1252dce025b996bc732d3867528",
    "resultType": "place",
    "address": {
      "label": "Rạp Tân Sơn Nhất, 1 Đường Phổ Quang, Phường 2, Quận Tân Bình, Hồ Chí Minh, Việt Nam",
      "countryCode": "VNM",
      "countryName": "Việt Nam",
      "county": "Hồ Chí Minh",
      "city": "Quận Tân Bình",
      "district": "Phường 2",
      "street": "Đường Phổ Quang",
      "postalCode": "72108",
      "houseNumber": "1"
    },
    "position": {
      "lat": 10.80225,
      "lng": 106.66574
    },
    "access": [
      {
        "lat": 10.80223,
        "lng": 106.66577
      }
    ],
    "distance": 1292,
    "categories": [
      {
        "id": "200-2100-0019",
        "name": "Rạp chiếu phim",
        "primary": true
      },
      {
        "id": "200-2000-0000",
        "name": "Giải trí về đêm",
        "primary": false
      },
      {
        "id": "200-2000-0014",
        "name": "Quán karaoke",
        "primary": false
      }
    ]
  },
  {
    "title": "Cơm Tấm Cây Khế 2",
    "id": "here:pds:place:704jx7ps-30182cf2b02d0c1ce9bda6a7cae0f674",
    "resultType": "place",
    "address": {
      "label": "Cơm Tấm Cây Khế 2, 91 Đường Phổ Quang, Phường 2, Quận Tân Bình, Hồ Chí Minh, Việt Nam",
      "countryCode": "VNM",
      "countryName": "Việt Nam",
      "county": "Hồ Chí Minh",
      "city": "Quận Tân Bình",
      "district": "Phường 2",
      "street": "Đường Phổ Quang",
      "postalCode": "72108",
      "houseNumber": "91"
    },
    "position": {
      "lat": 10.80712,
      "lng": 106.66835
    },
    "access": [
      {
        "lat": 10.8071,
        "lng": 106.66842
      }
    ],
    "distance": 221,
    "categories": [
      {
        "id": "100-1000-0000",
        "name": "Nhà hàng",
        "primary": true
      },
      {
        "id": "100-1000-0004",
        "name": "Chợ/Gian hàng ẩm thực",
        "primary": false
      }
    ]
  },
  {
    "title": "Qua Sam Café \u0026 Nhà Hàng Hàn Quốc",
    "id": "here:pds:place:704w3gv7-295a6c108525d6d44321a92c79b01ef6",
    "resultType": "place",
    "address": {
      "label": "Qua Sam Café \u0026 Nhà Hàng Hàn Quốc, 136 Đường Phổ Quang, Phường 9, Quận Phú Nhuận, Hồ Chí Minh, Việt Nam",
      "countryCode": "VNM",
      "countryName": "Việt Nam",
      "county": "Hồ Chí Minh",
      "city": "Quận Phú Nhuận",
      "district": "Phường 9",
      "street": "Đường Phổ Quang",
      "postalCode": "72216",
      "houseNumber": "136"
    },
    "position": {
      "lat": 10.8083,
      "lng": 106.67206
    },
    "access": [
      {
        "lat": 10.80837,
        "lng": 106.67211
      }
    ],
    "distance": 260,
    "categories": [
      {
        "id": "100-1000-0000",
        "name": "Nhà hàng",
        "primary": true
      },
      {
        "id": "100-1000-0006",
        "name": "Cửa hàng món ngon",
        "primary": false
      },
      {
        "id": "100-1100-0010",
        "name": "Quán cà phê",
        "primary": false
      }
    ]
  },
  {
    "title": "Quán Ăn Thành Trung",
    "id": "here:pds:place:704xjxn4-418ca57ea8b90c04a2bfe232ea55df4f",
    "resultType": "place",
    "address": {
      "label": "Quán Ăn Thành Trung, 28 Đường Yên Thế, Phường 2, Quận Tân Bình, Hồ Chí Minh, Việt Nam",
      "countryCode": "VNM",
      "countryName": "Việt Nam",
      "county": "Hồ Chí Minh",
      "city": "Quận Tân Bình",
      "district": "Phường 2",
      "street": "Đường Yên Thế",
      "postalCode": "72108",
      "houseNumber": "28"
    },
    "position": {
      "lat": 10.81061,
      "lng": 106.66828
    },
    "access": [
      {
        "lat": 10.81061,
        "lng": 106.66823
      }
    ],
    "distance": 272,
    "categories": [
      {
        "id": "100-1000-0000",
        "name": "Nhà hàng",
        "primary": true
      },
      {
        "id": "100-1000-0004",
        "name": "Chợ/Gian hàng ẩm thực",
        "primary": false
      }
    ]
  },
  {
    "title": "Quỳ Tây Quà Ta",
    "id": "here:pds:place:704w3gve-893f55e6e17841e4acb4c2e01e4f34ec",
    "resultType": "place",
    "address": {
      "label": "Quỳ Tây Quà Ta, 49 Cửu Long, Phường 2, Quận Tân Bình, Hồ Chí Minh, Việt Nam",
      "countryCode": "VNM",
      "countryName": "Việt Nam",
      "county": "Hồ Chí Minh",
      "city": "Quận Tân Bình",
      "district": "Phường 2",
      "street": "Cửu Long",
      "postalCode": "72108",
      "houseNumber": "49"
    },
    "position": {
      "lat": 10.81068,
      "lng": 106.66779
    },
    "access": [
      {
        "lat": 10.81061,
        "lng": 106.66781
      }
    ],
    "distance": 311,
    "categories": [
      {
        "id": "600-6900-0103",
        "name": "Quà tặng, đồ cổ và tác phẩm nghệ thuật",
        "primary": true
      }
    ]
  },
  {
    "title": "Gấu Bông Tốt Nghiệp - Gaubongtotnghiep.Com",
    "id": "here:pds:place:704d408k-82ca924c94eb0756dd040500f656d8f1",
    "resultType": "place",
    "address": {
      "label": "Gấu Bông Tốt Nghiệp - Gaubongtotnghiep.Com, 2R Đường Trường Sơn, Phường 2, Quận Tân Bình, Hồ Chí Minh, Việt Nam",
      "countryCode": "VNM",
      "countryName": "Việt Nam",
      "county": "Hồ Chí Minh",
      "city": "Quận Tân Bình",
      "district": "Phường 2",
      "street": "Đường Trường Sơn",
      "postalCode": "72108",
      "houseNumber": "2R"
    },
    "position": {
      "lat": 10.80568,
      "lng": 106.66456
    },
    "access": [
      {
        "lat": 10.80567,
        "lng": 106.66456
      }
    ],
    "distance": 649,
    "categories": [
      {
        "id": "600-6900-0103",
        "name": "Quà tặng, đồ cổ và tác phẩm nghệ thuật",
        "primary": true
      },
      {
        "id": "600-6900-0358",
        "name": "Cửa hàng đồ chơi",
        "primary": false
      }
    ]
  },
  {
    "title": "Dip Soul Candle \u0026 Workshop",
    "id": "here:pds:place:704w3gv7-5c7d794e8611dd7810bbe6b033379fa8",
    "resultType": "place",
    "address": {
      "label": "Dip Soul Candle \u0026 Workshop, 41 Đường Nguyễn Văn Mại, Phường 4, Quận Tân Bình, Hồ Chí Minh, Việt Nam",
      "countryCode": "VNM",
      "countryName": "Việt Nam",
      "county": "Hồ Chí Minh",
      "city": "Quận Tân Bình",
      "district": "Phường 4",
      "street": "Đường Nguyễn Văn Mại",
      "postalCode": "72106",
      "houseNumber": "41"
    },
    "position": {
      "lat": 10.80555,
      "lng": 106.6626
    },
    "access": [
      {
        "lat": 10.80558,
        "lng": 106.6626
      }
    ],
    "distance": 846,
    "categories": [
      {
        "id": "600-6900-0103",
        "name": "Quà tặng, đồ cổ và tác phẩm nghệ thuật",
        "primary": true
      }
    ]
  },
  {
    "title": "Techcombank - Tan Son Nhat",
    "id": "here:pds:place:704w3gv7-99f2ed16d5e021684d6f8af249fcda25",
    "resultType": "place",
    "address": {
      "label": "Techcombank - Tan Son Nhat, 12 Đường Hồng Hà, Phường 9, Quận Phú Nhuận, Hồ Chí Minh, Việt Nam",
      "countryCode": "VNM",
      "countryName": "Việt Nam",
      "county": "Hồ Chí Minh",
      "city": "Quận Phú Nhuận",
      "district": "Phường 9",
      "street": "Đường Hồng Hà",
      "postalCode": "72216",
      "houseNumber": "12"
    },
    "position": {
      "lat": 10.81046,
      "lng": 106.67223
    },
    "access": [
      {
        "lat": 10.81006,
        "lng": 106.67203
      }
    ],
    "distance": 328,
    "categories": [
      {
        "id": "700-7000-0107",
        "name": "Ngân hàng",
        "primary": true
      },
      {
        "id": "700-7010-0108",
        "name": "Máy rút tiền ATM",
        "primary": false
      }
    ]
  },
  {
    "title": "Ảnh Việt",
    "id": "here:pds:place:7041r4ve-675d478ac67d095193f9becad1dffdca",
    "resultType": "place",
    "address": {
      "label": "Ảnh Việt, 84 Đường Thích Minh Nguyệt, Phường 2, Quận Tân Bình, Hồ Chí Minh, Việt Nam",
      "countryCode": "VNM",
      "countryName": "Việt Nam",
      "county": "Hồ Chí Minh",
      "city": "Quận Tân Bình",
      "district": "Phường 2",
      "street": "Đường Thích Minh Nguyệt",
      "postalCode": "72108",
      "houseNumber": "84"
    },
    "position": {
      "lat": 10.80704,
      "lng": 106.6672
    },
    "access": [
      {
        "lat": 10.80705,
        "lng": 106.66713
      }
    ],
    "distance": 406,
    "categories": [
      {
        "id": "700-7000-0107",
        "name": "Ngân hàng",
        "primary": true
      },
      {
        "id": "700-7400-0141",
        "name": "Dịch vụ kinh doanh",
        "primary": false
      }
    ]
  },
  {
    "title": "Ngân Hàng Thương Mại Sài Gòn",
    "id": "here:pds:place:704jx7ps-5ec0e943bbff00fee5f68722e6e059b9",
    "resultType": "place",
    "address": {
      "label": "Ngân Hàng Thương Mại Sài Gòn, 92 Đường Hồng Hà, Phường 2, Quận Tân Bình, Hồ Chí Minh, Việt Nam",
      "countryCode": "VNM",
      "countryName": "Việt Nam",
      "county": "Hồ Chí Minh",
      "city": "Quận Tân Bình",
      "district": "Phường 2",
      "street": "Đường Hồng Hà",
      "postalCode": "72108",
      "houseNumber": "92"
    },
    "position": {
      "lat": 10.81301,
      "lng": 106.66962
    },
    "access": [
      {
        "lat": 10.81314,
        "lng": 106.66963
      }
    ],
    "distance": 587,
    "categories": [
      {
        "id": "700-7000-0107",
        "name": "Ngân hàng",
        "primary": true
      },
      {
        "id": "700-7010-0108",
        "name": "Máy rút tiền ATM",
        "primary": false
      }
    ]
  },
  {
    "title": "Cty TNHH Loc Anh",
    "id": "here:pds:place:704w76vn-20542afdd2724d8faf8120b96e86ebf7",
    "resultType": "place",
    "address": {
      "label": "Cty TNHH Loc Anh, 49 Đường Phổ Quang, Phường 2, Quận Tân Bình, Hồ Chí Minh, Việt Nam",
      "countryCode": "VNM",
      "countryName": "Việt Nam",
      "county": "Hồ Chí Minh",
      "city": "Quận Tân Bình",
      "district": "Phường 2",
      "street": "Đường Phổ Quang",
      "postalCode": "72108",
      "houseNumber": "49"
    },
    "position": {
      "lat": 10.80598,
      "lng": 106.66801
    },
    "access": [
      {
        "lat": 10.80593,
        "lng": 106.668
      }
    ],
    "distance": 371,
    "categories": [
      {
        "id": "200-2000-0011",
        "name": "Bar hoặc Quán rượu",
        "primary": true
      }
    ]
  },
  {
    "title": "The Long Cafe",
    "id": "here:pds:place:704w3gv7-ef19c9aeb0ff43c38f4b2d3793a44a70",
    "resultType": "place",
    "address": {
      "label": "The Long Cafe, 3 Đường Phổ Quang, Phường 2, Quận Tân Bình, Hồ Chí Minh, Việt Nam",
      "countryCode": "VNM",
      "countryName": "Việt Nam",
      "county": "Hồ Chí Minh",
      "city": "Quận Tân Bình",
      "district": "Phường 2",
      "street": "Đường Phổ Quang",
      "postalCode": "72108",
      "houseNumber": "3"
    },
    "position": {
      "lat": 10.80374,
      "lng": 106.66615
    },
    "access": [
      {
        "lat": 10.80372,
        "lng": 106.66619
      }
    ],
    "distance": 686,
    "categories": [
      {
        "id": "100-1100-0010",
        "name": "Quán cà phê",
        "primary": true
      },
      {
        "id": "100-1100-0000",
        "name": "Cà Phê/Trà",
        "primary": false
      },
      {
        "id": "200-2000-0011",
        "name": "Bar hoặc Quán rượu",
        "primary": false
      }
    ]
  },
  {
    "title": "Điểm Tâm \u0026 Cơm Văn Phòng",
    "id": "here:pds:place:704w3gv7-81aefd76134d93949f7cc6d784662812",
    "resultType": "place",
    "address": {
      "label": "Điểm Tâm \u0026 Cơm Văn Phòng, 13A Đường Hồ Văn Huê, Phường 9, Quận Phú Nhuận, Hồ Chí Minh, Việt Nam",
      "countryCode": "VNM",
      "countryName": "Việt Nam",
      "county": "Hồ Chí Minh",
      "city": "Quận Phú Nhuận",
      "district": "Phường 9",
      "street": "Đường Hồ Văn Huê",
      "postalCode": "72216",
      "houseNumber": "13A"
    },
    "position": {
      "lat": 10.80066,
      "lng": 106.67533
    },
    "access": [
      {
        "lat": 10.8006,
        "lng": 106.67541
      }
    ],
    "distance": 246,
    "categories": [
      {
        "id": "100-1000-0007",
        "name": "Cafeteria",
        "primary": true
      },
      {
        "id": "100-1000-0000",
        "name": "Nhà hàng",
        "primary": false
      },
      {
        "id": "600-6300-0064",
        "name": "Đặc sản \u0026 Đồ uống",
        "primary": false
      }
    ]
  },
  {
    "title": "Bãi Đậu Xe Buýt Công Ty Xe Khách Sài Gòn",
    "id": "here:pds:place:704jx7ps-616e9fc8592f0cbc0427c394f20acbf7",
    "resultType": "place",
    "address": {
      "label": "Bãi Đậu Xe Buýt Công Ty Xe Khách Sài Gòn, 1 Hẻm 64 Đường Huỳnh Lan Khanh, Phường 2, Quận Tân Bình, Hồ Chí Minh, Việt Nam",
      "countryCode": "VNM",
      "countryName": "Việt Nam",
      "county": "Hồ Chí Minh",
      "city": "Quận Tân Bình",
      "district": "Phường 2",
      "street": "Hẻm 64 Đường Huỳnh Lan Khanh",
      "postalCode": "72108",
      "houseNumber": "1"
    },
    "position": {
      "lat": 10.80478,
      "lng": 106.66737
    },
    "access": [
      {
        "lat": 10.80475,
        "lng": 106.66739
      }
    ],
    "distance": 1035,
    "categories": [
      {
        "id": "400-4100-0036",
        "name": "Trạm xe buýt",
        "primary": true
      }
    ]
  },
  {
    "title": "Minh Phát Express",
    "id": "here:pds:place:704w3gv7-e5601559099c56c89b18241ff5a7d709",
    "resultType": "place",
    "address": {
      "label": "Minh Phát Express, 71 Đường Cộng Hòa, Phường 4, Quận Tân Bình, Hồ Chí Minh, Việt Nam",
      "countryCode": "VNM",
      "countryName": "Việt Nam",
      "county": "Hồ Chí Minh",
      "city": "Quận Tân Bình",
      "district": "Phường 4",
      "street": "Đường Cộng Hòa",
      "postalCode": "72106",
      "houseNumber": "71"
    },
    "position": {
      "lat": 10.80111,
      "lng": 106.65571
    },
    "access": [
      {
        "lat": 10.80112,
        "lng": 106.65571
      }
    ],
    "distance": 364,
    "categories": [
      {
        "id": "700-7450-0114",
        "name": "Bưu điện",
        "primary": true
      }
    ]
  },
  {
    "title": "Citypost Giao Hàng Siêu Tốc",
    "id": "here:pds:place:704w3gv6-583b8afd1206ed7e8c3e96ac86723634",
    "resultType": "place",
    "address": {
      "label": "Citypost Giao Hàng Siêu Tốc, 11 Đường B6, Phường 12, Quận Tân Bình, Hồ Chí Minh, Việt Nam",
      "countryCode": "VNM",
      "countryName": "Việt Nam",
      "county": "Hồ Chí Minh",
      "city": "Quận Tân Bình",
      "district": "Phường 12",
      "street": "Đường B6",
      "postalCode": "72111",
      "houseNumber": "11"
    },
    "position": {
      "lat": 10.79821,
      "lng": 106.65021
    },
    "access": [
      {
        "lat": 10.79821,
        "lng": 106.6502
      }
    ],
    "distance": 427,
    "categories": [
      {
        "id": "700-7450-0114",
        "name": "Bưu điện",
        "primary": true
      }
    ]
  },
  {
    "title": "Cửa Hàng Nội Thất Phương Đông",
    "id": "here:pds:place:704w3gv6-c72c7828342c4a3c85eaab69c48c7639",
    "resultType": "place",
    "address": {
      "label": "Cửa Hàng Nội Thất Phương Đông, 185 Đường Nguyễn Thái Bình, Phường 12, Quận Tân Bình, Hồ Chí Minh, Việt Nam",
      "countryCode": "VNM",
      "countryName": "Việt Nam",
      "county": "Hồ Chí Minh",
      "city": "Quận Tân Bình",
      "district": "Phường 12",
      "street": "Đường Nguyễn Thái Bình",
      "postalCode": "72111",
      "houseNumber": "185"
    },
    "position": {
      "lat": 10.79851,
      "lng": 106.65513
    },
    "access": [
      {
        "lat": 10.79852,
        "lng": 106.65512
      }
    ],
    "distance": 439,
    "categories": [
      {
        "id": "600-6900-0096",
        "name": "Cửa hàng chuyên dụng",
        "primary": true
      },
      {
        "id": "600-6500-0072",
        "name": "Cửa hàng điện tử gia dụng",
        "primary": false
      },
      {
        "id": "600-6600-0077",
        "name": "Cửa hàng phần cứng hoặc trung tâm DIY",
        "primary": false
      },
      {
        "id": "600-6600-0078",
        "name": "Cửa hàng bán đồ gia dụng/Nội thất",
        "primary": false
      },
      {
        "id": "600-6600-0080",
        "name": "Phụ kiện nội thất và gia đình",
        "primary": false
      },
      {
        "id": "600-6900-0095",
        "name": "Dụng cụ văn phòng và dịch vụ",
        "primary": false
      },
      {
        "id": "700-7100-0000",
        "name": "Liên lạc và truyền thông",
        "primary": false
      },
      {
        "id": "700-7400-0141",
        "name": "Dịch vụ kinh doanh",
        "primary": false
      },
      {
        "id": "700-7450-0114",
        "name": "Bưu điện",
        "primary": false
      },
      {
        "id": "700-7850-0123",
        "name": "Phụ tùng ô tô",
        "primary": false
      }
    ]
  },
  {
    "title": "Lumiere Byblos- Medditeranean Cuisine",
    "id": "here:pds:place:704w3gv6-9a9fb49732a04e38a351261d7593c694",
    "resultType": "place",
    "address": {
      "label": "Lumiere Byblos- Medditeranean Cuisine, 18E Đường Cộng Hòa, Phường 4, Quận Tân Bình, Hồ Chí Minh, Việt Nam",
      "countryCode": "VNM",
      "countryName": "Việt Nam",
      "county": "Hồ Chí Minh",
      "city": "Quận Tân Bình",
      "district": "Phường 4",
      "street": "Đường Cộng Hòa",
      "postalCode": "72106",
      "houseNumber": "18E"
    },
    "position": {
      "lat": 10.80161,
      "lng": 106.65488
    },
    "access": [
      {
        "lat": 10.80156,
        "lng": 106.6548
      }
    ],
    "distance": 273,
    "categories": [
      {
        "id": "100-1000-0000",
        "name": "Nhà hàng",
        "primary": true
      },
      {
        "id": "100-1000-0001",
        "name": "Quán ăn bình dân",
        "primary": false
      },
      {
        "id": "200-2000-0011",
        "name": "Bar hoặc Quán rượu",
        "primary": false
      }
    ]
  },
  {
    "title": "Kai Coffee",
    "id": "here:pds:place:704w3gv7-a9fa0489f6821832ab1b3db3e363267b",
    "resultType": "place",
    "address": {
      "label": "Kai Coffee, 139 Đường Nguyễn Thái Bình, Phường 4, Quận Tân Bình, Hồ Chí Minh, Việt Nam",
      "countryCode": "VNM",
      "countryName": "Việt Nam",
      "county": "Hồ Chí Minh",
      "city": "Quận Tân Bình",
      "district": "Phường 4",
      "street": "Đường Nguyễn Thái Bình",
      "postalCode": "72106",
      "houseNumber": "139"
    },
    "position": {
      "lat": 10.79895,
      "lng": 106.65582
    },
    "access": [
      {
        "lat": 10.79893,
        "lng": 106.65582
      }
    ],
    "distance": 463,
    "categories": [
      {
        "id": "200-2000-0011",
        "name": "Bar hoặc Quán rượu",
        "primary": true
      }
    ]
  },
  {
    "title": "Chuối Chiên Lắc Phô Mai",
    "id": "here:pds:place:704w3gvc-4b932c95004696e17e5db34addea98d6",
    "resultType": "place",
    "address": {
      "label": "Chuối Chiên Lắc Phô Mai, 12 Đường Nguyễn Thái Bình, Phường 4, Quận Tân Bình, Hồ Chí Minh, Việt Nam",
      "countryCode": "VNM",
      "countryName": "Việt Nam",
      "county": "Hồ Chí Minh",
      "city": "Quận Tân Bình",
      "district": "Phường 4",
      "street": "Đường Nguyễn Thái Bình",
      "postalCode": "72106",
      "houseNumber": "12"
    },
    "position": {
      "lat": 10.79933,
      "lng": 106.65731
    },
    "access": [
      {
        "lat": 10.7992,
        "lng": 106.65735
      }
    ],
    "distance": 585,
    "categories": [
      {
        "id": "200-2000-0011",
        "name": "Bar hoặc Quán rượu",
        "primary": true
      },
      {
        "id": "100-1000-0001",
        "name": "Quán ăn bình dân",
        "primary": false
      },
      {
        "id": "100-1000-0004",
        "name": "Chợ/Gian hàng ẩm thực",
        "primary": false
      },
      {
        "id": "100-1100-0000",
        "name": "Cà Phê/Trà",
        "primary": false
      },
      {
        "id": "100-1100-0010",
        "name": "Quán cà phê",
        "primary": false
      }
    ]
  },
  {
    "title": "Playstation",
    "id": "here:pds:place:704w3gv6-7c01174a95c30946da3dd99addb7012b",
    "resultType": "place",
    "address": {
      "label": "Playstation, 7 Đường Cách Mạng Tháng Tám, Phường 4, Quận Tân Bình, Hồ Chí Minh, Việt Nam",
      "countryCode": "VNM",
      "countryName": "Việt Nam",
      "county": "Hồ Chí Minh",
      "city": "Quận Tân Bình",
      "district": "Phường 4",
      "street": "Đường Cách Mạng Tháng Tám",
      "postalCode": "72106",
      "houseNumber": "7"
    },
    "position": {
      "lat": 10.79275,
      "lng": 106.65877
    },
    "access": [
      {
        "lat": 10.79279,
        "lng": 106.65872
      }
    ],
    "distance": 459,
    "categories": [
      {
        "id": "400-4100-0036",
        "name": "Trạm xe buýt",
        "primary": true
      }
    ]
  },
  {
    "title": "The Street",
    "id": "here:pds:place:704w3gv7-5cdc5b79d446de804adf60effecef7f4",
    "resultType": "place",
    "address": {
      "label": "The Street, 181 Đường Cách Mạng Tháng 8, Phường 5, Quận Tân Bình, Hồ Chí Minh, Việt Nam",
      "countryCode": "VNM",
      "countryName": "Việt Nam",
      "county": "Hồ Chí Minh",
      "city": "Quận Tân Bình",
      "district": "Phường 5",
      "street": "Đường Cách Mạng Tháng 8",
      "postalCode": "72119",
      "houseNumber": "181"
    },
    "position": {
      "lat": 10.78981,
      "lng": 106.65874
    },
    "access": [
      {
        "lat": 10.78999,
        "lng": 106.65884
      }
    ],
    "distance": 230,
    "categories": [
      {
        "id": "100-1000-0006",
        "name": "Cửa hàng món ngon",
        "primary": true
      },
      {
        "id": "100-1000-0000",
        "name": "Nhà hàng",
        "primary": false
      },
      {
        "id": "100-1000-0004",
        "name": "Chợ/Gian hàng ẩm thực",
        "primary": false
      },
      {
        "id": "200-2000-0011",
        "name": "Bar hoặc Quán rượu",
        "primary": false
      }
    ]
  },
  {
    "title": "Nimbus Rooftop",
    "id": "here:pds:place:70478660-f5bd008cfc66819a64ba641bbf2db438",
    "resultType": "place",
    "address": {
      "label": "Nimbus Rooftop, 10 Hoàng Văn Thụ, Phường 4, Quận Tân Bình, Hồ Chí Minh, Việt Nam",
      "countryCode": "VNM",
      "countryName": "Việt Nam",
      "county": "Hồ Chí Minh",
      "city": "Quận Tân Bình",
      "district": "Phường 4",
      "street": "Hoàng Văn Thụ",
      "postalCode": "72106",
      "houseNumber": "10"
    },
    "position": {
      "lat": 10.79407,
      "lng": 106.65704
    },
    "access": [
      {
        "lat": 10.79418,
        "lng": 106.65691
      }
    ],
    "distance": 684,
    "categories": [
      {
        "id": "200-2000-0011",
        "name": "Bar hoặc Quán rượu",
        "primary": true
      }
    ]
  },
  {
    "title": "Fruit Farm - 2f",
    "id": "here:pds:place:704w3gv7-26b887acee554d8d9f8d594d7f1e754d",
    "resultType": "place",
    "address": {
      "label": "Fruit Farm - 2f, 87 Đường Cửu Long, Phường 15, Quận 10, Hồ Chí Minh, Việt Nam",
      "countryCode": "VNM",
      "countryName": "Việt Nam",
      "county": "Hồ Chí Minh",
      "city": "Quận 10",
      "district": "Phường 15",
      "street": "Đường Cửu Long",
      "postalCode": "72512",
      "houseNumber": "87"
    },
    "position": {
      "lat": 10.7828,
      "lng": 106.66155
    },
    "access": [
      {
        "lat": 10.78281,
        "lng": 106.66159
      }
    ],
    "distance": 705,
    "categories": [
      {
        "id": "200-2000-0011",
        "name": "Bar hoặc Quán rượu",
        "primary": true
      },
      {
        "id": "600-6300-0064",
        "name": "Đặc sản \u0026 Đồ uống",
        "primary": false
      }
    ]
  },
  {
    "title": "Đại Lý Bưu Điện",
    "id": "here:pds:place:704jx7ps-687f97c71f0a01e21e36af4ab3e78fa3",
    "resultType": "place",
    "address": {
      "label": "Đại Lý Bưu Điện, 573 Đường Cách Mạng Tháng 8, Phường 15, Quận 10, Hồ Chí Minh, Việt Nam",
      "countryCode": "VNM",
      "countryName": "Việt Nam",
      "county": "Hồ Chí Minh",
      "city": "Quận 10",
      "district": "Phường 15",
      "street": "Đường Cách Mạng Tháng 8",
      "postalCode": "72512",
      "houseNumber": "573"
    },
    "position": {
      "lat": 10.78398,
      "lng": 106.67001
    },
    "access": [
      {
        "lat": 10.78403,
        "lng": 106.67004
      }
    ],
    "distance": 212,
    "categories": [
      {
        "id": "700-7450-0114",
        "name": "Bưu điện",
        "primary": true
      }
    ]
  },
  {
    "title": "Đồ Si",
    "id": "here:pds:place:704w3gv7-6f911c1471ffc574bd46ff1bf15afb83",
    "resultType": "place",
    "address": {
      "label": "Đồ Si, 1061 Đường Hoàng Sa, Phường 11, Quận 3, Hồ Chí Minh, Việt Nam",
      "countryCode": "VNM",
      "countryName": "Việt Nam",
      "county": "Hồ Chí Minh",
      "city": "Quận 3",
      "district": "Phường 11",
      "street": "Đường Hoàng Sa",
      "postalCode": "72411",
      "houseNumber": "1061"
    },
    "position": {
      "lat": 10.78784,
      "lng": 106.67004
    },
    "access": [
      {
        "lat": 10.78792,
        "lng": 106.67007
      }
    ],
    "distance": 306,
    "categories": [
      {
        "id": "700-7450-0114",
        "name": "Bưu điện",
        "primary": true
      },
      {
        "id": "600-6900-0251",
        "name": "Cửa hàng đồ cũ",
        "primary": false
      }
    ]
  },
  {
    "title": "Đại Lý Bưu Điện Viettel",
    "id": "here:pds:place:704jx7ps-4d5a4e42d6c70780ea00a4039d373df5",
    "resultType": "place",
    "address": {
      "label": "Đại Lý Bưu Điện Viettel, 629 Đường Cách Mạng Tháng 8, Phường 15, Quận 10, Hồ Chí Minh, Việt Nam",
      "countryCode": "VNM",
      "countryName": "Việt Nam",
      "county": "Hồ Chí Minh",
      "city": "Quận 10",
      "district": "Phường 15",
      "street": "Đường Cách Mạng Tháng 8",
      "postalCode": "72512",
      "houseNumber": "629"
    },
    "position": {
      "lat": 10.78555,
      "lng": 106.66698
    },
    "access": [
      {
        "lat": 10.78561,
        "lng": 106.66706
      }
    ],
    "distance": 473,
    "categories": [
      {
        "id": "700-7450-0114",
        "name": "Bưu điện",
        "primary": true
      }
    ]
  },
  {
    "title": "Quán Cà Phê Con Ong - Bee Coffee",
    "id": "here:pds:place:704w3gv7-aa271a3a3c8d40dc90984ed09c876046",
    "resultType": "place",
    "address": {
      "label": "Quán Cà Phê Con Ong - Bee Coffee, 158 Đường Hồ Bá Kiện, Phường 15, Quận 10, Hồ Chí Minh, Việt Nam",
      "countryCode": "VNM",
      "countryName": "Việt Nam",
      "county": "Hồ Chí Minh",
      "city": "Quận 10",
      "district": "Phường 15",
      "street": "Đường Hồ Bá Kiện",
      "postalCode": "72512",
      "houseNumber": "158"
    },
    "position": {
      "lat": 10.78305,
      "lng": 106.66659
    },
    "access": [
      {
        "lat": 10.783,
        "lng": 106.66655
      }
    ],
    "distance": 578,
    "categories": [
      {
        "id": "200-2000-0011",
        "name": "Bar hoặc Quán rượu",
        "primary": true
      },
      {
        "id": "100-1100-0010",
        "name": "Quán cà phê",
        "primary": false
      }
    ]
  },
  {
    "title": "Uprising",
    "id": "here:pds:place:704w3gv7-371a98fe42208f8c15975e696a292a65",
    "resultType": "place",
    "address": {
      "label": "Uprising, 420/6 Đường Lê Văn Sỹ, Phường 14, Quận 3, Hồ Chí Minh, Việt Nam",
      "countryCode": "VNM",
      "countryName": "Việt Nam",
      "county": "Hồ Chí Minh",
      "city": "Quận 3",
      "district": "Phường 14",
      "street": "Đường Lê Văn Sỹ",
      "postalCode": "72409",
      "houseNumber": "420/6"
    },
    "position": {
      "lat": 10.78891,
      "lng": 106.67608
    },
    "access": [
      {
        "lat": 10.78887,
        "lng": 106.67605
      }
    ],
    "distance": 652,
    "categories": [
      {
        "id": "200-2000-0011",
        "name": "Bar hoặc Quán rượu",
        "primary": true
      }
    ]
  },
  {
    "title": "CNCT TNHH CN Plus-Q3",
    "id": "here:pds:place:704w3gv7-c77cfea3f59856cff7f7e9dac8f5684f",
    "resultType": "place",
    "address": {
      "label": "CNCT TNHH CN Plus-Q3, 6C Đường Trần Quang Diệu, Phường 13, Quận 3, Hồ Chí Minh, Việt Nam",
      "countryCode": "VNM",
      "countryName": "Việt Nam",
      "county": "Hồ Chí Minh",
      "city": "Quận 3",
      "district": "Phường 13",
      "street": "Đường Trần Quang Diệu",
      "postalCode": "72412",
      "houseNumber": "6C"
    },
    "position": {
      "lat": 10.78652,
      "lng": 106.67826
    },
    "access": [
      {
        "lat": 10.78652,
        "lng": 106.67833
      }
    ],
    "distance": 769,
    "categories": [
      {
        "id": "200-2000-0011",
        "name": "Bar hoặc Quán rượu",
        "primary": true
      }
    ]
  },
  {
    "title": "An Phu Plaza",
    "id": "here:pds:place:704jx7ps-054a7d9686c006a1b85f60606b593140",
    "resultType": "place",
    "address": {
      "label": "An Phu Plaza, 117-119 Đường Lý Chính Thắng, Phường Võ Thị Sáu, Quận 3, Hồ Chí Minh, Việt Nam",
      "countryCode": "VNM",
      "countryName": "Việt Nam",
      "county": "Hồ Chí Minh",
      "city": "Quận 3",
      "district": "Phường Võ Thị Sáu",
      "street": "Đường Lý Chính Thắng",
      "postalCode": "72415",
      "houseNumber": "117-119"
    },
    "position": {
      "lat": 10.78743,
      "lng": 106.68505
    },
    "access": [
      {
        "lat": 10.7875,
        "lng": 106.68484
      }
    ],
    "distance": 336,
    "categories": [
      {
        "id": "700-7250-0136",
        "name": "Doanh nghiệp",
        "primary": true
      },
      {
        "id": "600-6100-0062",
        "name": "Trung tâm mua sắm hoặc trung tâm thương mại",
        "primary": false
      },
      {
        "id": "700-7200-0344",
        "name": "Quản lý bất động sản",
        "primary": false
      },
      {
        "id": "900-9300-0221",
        "name": "Tòa nhà chung cư",
        "primary": false
      }
    ]
  },
  {
    "title": "Chợ Tân Định",
    "id": "here:pds:place:704jx7ps-fd555310fdb500ca2180280d9db5caed",
    "resultType": "place",
    "address": {
      "label": "Chợ Tân Định, 336 Đường Hai Bà Trưng, Phường Tân Định, Quận 1, Hồ Chí Minh, Việt Nam",
      "countryCode": "VNM",
      "countryName": "Việt Nam",
      "county": "Hồ Chí Minh",
      "city": "Quận 1",
      "district": "Phường Tân Định",
      "street": "Đường Hai Bà Trưng",
      "postalCode": "71008",
      "houseNumber": "336"
    },
    "position": {
      "lat": 10.7898,
      "lng": 106.6896
    },
    "access": [
      {
        "lat": 10.78979,
        "lng": 106.68959
      }
    ],
    "distance": 658,
    "categories": [
      {
        "id": "600-6300-0066",
        "name": "Siêu thị",
        "primary": true
      },
      {
        "id": "100-1000-0000",
        "name": "Nhà hàng",
        "primary": false
      },
      {
        "id": "600-6100-0062",
        "name": "Trung tâm mua sắm hoặc trung tâm thương mại",
        "primary": false
      },
      {
        "id": "600-6300-0064",
        "name": "Đặc sản \u0026 Đồ uống",
        "primary": false
      },
      {
        "id": "600-6900-0247",
        "name": "Chợ",
        "primary": false
      }
    ]
  },
  {
    "title": "Cửa Hàng Tiện Ích Foodcomart",
    "id": "here:pds:place:704w3gv7-5e35de1e7227423f5cb1a03ae66678f3",
    "resultType": "place",
    "address": {
      "label": "Cửa Hàng Tiện Ích Foodcomart, 8 Đường Hai Bà Trưng, Phường Võ Thị Sáu, Quận 3, Hồ Chí Minh, Việt Nam",
      "countryCode": "VNM",
      "countryName": "Việt Nam",
      "county": "Hồ Chí Minh",
      "city": "Quận 3",
      "district": "Phường Võ Thị Sáu",
      "street": "Đường Hai Bà Trưng",
      "postalCode": "72415",
      "houseNumber": "8"
    },
    "position": {
      "lat": 10.78912,
      "lng": 106.68981
    },
    "access": [
      {
        "lat": 10.78943,
        "lng": 106.69005
      }
    ],
    "distance": 689,
    "categories": [
      {
        "id": "600-6100-0062",
        "name": "Trung tâm mua sắm hoặc trung tâm thương mại",
        "primary": true
      }
    ]
  },
  {
    "title": "Bánh Canh Ghẹ Cầu Bông",
    "id": "here:pds:place:704xjxn4-d590b2e1a6690ab83f7da881f1bd2cae",
    "resultType": "place",
    "address": {
      "label": "Bánh Canh Ghẹ Cầu Bông, 2 Đường Lê Văn Duyệt, Phường 3, Quận Bình Thạnh, Hồ Chí Minh, Việt Nam",
      "countryCode": "VNM",
      "countryName": "Việt Nam",
      "county": "Hồ Chí Minh",
      "city": "Quận Bình Thạnh",
      "district": "Phường 3",
      "street": "Đường Lê Văn Duyệt",
      "postalCode": "72317",
      "houseNumber": "2"
    },
    "position": {
      "lat": 10.79409,
      "lng": 106.6961
    },
    "access": [
      {
        "lat": 10.79409,
        "lng": 106.69601
      }
    ],
    "distance": 228,
    "categories": [
      {
        "id": "600-6300-0064",
        "name": "Đặc sản \u0026 Đồ uống",
        "primary": true
      },
      {
        "id": "100-1100-0331",
        "name": "Phòng trà",
        "primary": false
      }
    ]
  },
  {
    "title": "Tạp Hóa",
    "id": "here:pds:place:704jx7ps-ac2c02d65d3a00ecaa8757bed502ae64",
    "resultType": "place",
    "address": {
      "label": "Tạp Hóa, 118BIS Đường Mai Thị Lựu, Phường Đa Kao, Quận 1, Hồ Chí Minh, Việt Nam",
      "countryCode": "VNM",
      "countryName": "Việt Nam",
      "county": "Hồ Chí Minh",
      "city": "Quận 1",
      "district": "Phường Đa Kao",
      "street": "Đường Mai Thị Lựu",
      "postalCode": "71007",
      "houseNumber": "118BIS"
    },
    "position": {
      "lat": 10.7926,
      "lng": 106.69773
    },
    "access": [
      {
        "lat": 10.7925,
        "lng": 106.69767
      }
    ],
    "distance": 268,
    "categories": [
      {
        "id": "600-6000-0061",
        "name": "Cửa hàng tiện lợi",
        "primary": true
      },
      {
        "id": "600-6200-0063",
        "name": "Cửa hàng bách hóa",
        "primary": false
      },
      {
        "id": "600-6900-0000",
        "name": "Hàng tiêu dùng",
        "primary": false
      }
    ]
  },
  {
    "title": "Quán Gà Ta Thanh Nga",
    "id": "here:pds:place:704jx7ps-abc8d011a168056ed52bc232a506a5bd",
    "resultType": "place",
    "address": {
      "label": "Quán Gà Ta Thanh Nga, 617 Đường Nguyễn Kiệm, Phường 3, Quận Gò Vấp, Hồ Chí Minh, Việt Nam",
      "countryCode": "VNM",
      "countryName": "Việt Nam",
      "county": "Hồ Chí Minh",
      "city": "Quận Gò Vấp",
      "district": "Phường 3",
      "street": "Đường Nguyễn Kiệm",
      "postalCode": "71409",
      "houseNumber": "617"
    },
    "position": {
      "lat": 10.82194,
      "lng": 106.67885
    },
    "access": [
      {
        "lat": 10.82194,
        "lng": 106.67887
      }
    ],
    "distance": 251,
    "categories": [
      {
        "id": "100-1000-0000",
        "name": "Nhà hàng",
        "primary": true
      },
      {
        "id": "100-1100-0010",
        "name": "Quán cà phê",
        "primary": false
      }
    ]
  },
  {
    "title": "Coffee Thư Giản",
    "id": "here:pds:place:704jx7ps-817375eed3420000c51498e1f1f79cbc",
    "resultType": "place",
    "address": {
      "label": "Coffee Thư Giản, 952 Đường Nguyễn Kiệm, Phường 3, Quận Gò Vấp, Hồ Chí Minh, Việt Nam",
      "countryCode": "VNM",
      "countryName": "Việt Nam",
      "county": "Hồ Chí Minh",
      "city": "Quận Gò Vấp",
      "district": "Phường 3",
      "street": "Đường Nguyễn Kiệm",
      "postalCode": "71409",
      "houseNumber": "952"
    },
    "position": {
      "lat": 10.82396,
      "lng": 106.67922
    },
    "access": [
      {
        "lat": 10.82398,
        "lng": 106.67913
      }
    ],
    "distance": 354,
    "categories": [
      {
        "id": "100-1100-0010",
        "name": "Quán cà phê",
        "primary": true
      },
      {
        "id": "100-1000-0000",
        "name": "Nhà hàng",
        "primary": false
      }
    ]
  },
  {
    "title": "Passio 786 Nguyễn Kiệm Gò Vấp",
    "id": "here:pds:place:704w3gve-6bc29297090449adaa26664cbb23814a",
    "resultType": "place",
    "address": {
      "label": "Passio 786 Nguyễn Kiệm Gò Vấp, 786 Đường Nguyễn Kiệm, Phường 3, Quận Gò Vấp, Hồ Chí Minh, Việt Nam",
      "countryCode": "VNM",
      "countryName": "Việt Nam",
      "county": "Hồ Chí Minh",
      "city": "Quận Gò Vấp",
      "district": "Phường 3",
      "street": "Đường Nguyễn Kiệm",
      "postalCode": "71409",
      "houseNumber": "786"
    },
    "position": {
      "lat": 10.81989,
      "lng": 106.67886
    },
    "access": [
      {
        "lat": 10.81989,
        "lng": 106.67882
      }
    ],
    "distance": 355,
    "categories": [
      {
        "id": "100-1000-0000",
        "name": "Nhà hàng",
        "primary": true
      },
      {
        "id": "100-1100-0010",
        "name": "Quán cà phê",
        "primary": false
      }
    ]
  },
  {
    "title": "Tạp Hóa Cô Thơm",
    "id": "here:pds:place:704w3gve-be42f6604f604d18feeac23b47bca098",
    "resultType": "place",
    "address": {
      "label": "Tạp Hóa Cô Thơm, 55/9 Hẻm 55 Nguyễn Văn Công, Phường 3, Quận Gò Vấp, Hồ Chí Minh, Việt Nam",
      "countryCode": "VNM",
      "countryName": "Việt Nam",
      "county": "Hồ Chí Minh",
      "city": "Quận Gò Vấp",
      "district": "Phường 3",
      "street": "Hẻm 55 Nguyễn Văn Công",
      "postalCode": "71409",
      "houseNumber": "55/9"
    },
    "position": {
      "lat": 10.82375,
      "lng": 106.67744
    },
    "access": [
      {
        "lat": 10.82377,
        "lng": 106.67735
      }
    ],
    "distance": 203,
    "categories": [
      {
        "id": "600-6000-0061",
        "name": "Cửa hàng tiện lợi",
        "primary": true
      }
    ]
  },
  {
    "title": "Đại Lý Bia Tiger Như Ý Cát Tường",
    "id": "here:pds:place:704w3gve-7808428e35b546a18b32fbcbecae958a",
    "resultType": "place",
    "address": {
      "label": "Đại Lý Bia Tiger Như Ý Cát Tường, 429 Đường Nguyễn Kiệm, Phường 3, Quận Gò Vấp, Hồ Chí Minh, Việt Nam",
      "countryCode": "VNM",
      "countryName": "Việt Nam",
      "county": "Hồ Chí Minh",
      "city": "Quận Gò Vấp",
      "district": "Phường 3",
      "street": "Đường Nguyễn Kiệm",
      "postalCode": "71409",
      "houseNumber": "429"
    },
    "position": {
      "lat": 10.82108,
      "lng": 106.67882
    },
    "access": [
      {
        "lat": 10.82107,
        "lng": 106.67887
      }
    ],
    "distance": 274,
    "categories": [
      {
        "id": "600-6000-0061",
        "name": "Cửa hàng tiện lợi",
        "primary": true
      }
    ]
  },
  {
    "title": "Tạp Hóa Quốc Hưng",
    "id": "here:pds:place:704w3gve-345be9f65fef462ca3db457afc0b0d4b",
    "resultType": "place",
    "address": {
      "label": "Tạp Hóa Quốc Hưng, 881 Đường Nguyễn Kiệm, Phường 3, Quận Gò Vấp, Hồ Chí Minh, Việt Nam",
      "countryCode": "VNM",
      "countryName": "Việt Nam",
      "county": "Hồ Chí Minh",
      "city": "Quận Gò Vấp",
      "district": "Phường 3",
      "street": "Đường Nguyễn Kiệm",
      "postalCode": "71409",
      "houseNumber": "881"
    },
    "position": {
      "lat": 10.823,
      "lng": 106.67894
    },
    "access": [
      {
        "lat": 10.82299,
        "lng": 106.67895
      }
    ],
    "distance": 277,
    "categories": [
      {
        "id": "600-6000-0061",
        "name": "Cửa hàng tiện lợi",
        "primary": true
      },
      {
        "id": "600-6300-0064",
        "name": "Đặc sản \u0026 Đồ uống",
        "primary": false
      },
      {
        "id": "600-6300-0066",
        "name": "Siêu thị",
        "primary": false
      },
      {
        "id": "600-6900-0000",
        "name": "Hàng tiêu dùng",
        "primary": false
      }
    ]
  },
  {
    "title": "Bánh Xèo Rau Rừng Bé Diệp",
    "id": "here:pds:place:704w3gve-d4a9ddf5bbb7834e77bb387429ba9f0e",
    "resultType": "place",
    "address": {
      "label": "Bánh Xèo Rau Rừng Bé Diệp, 53 Đường Phạm Văn Đồng, Phường 3, Quận Gò Vấp, Hồ Chí Minh, Việt Nam",
      "countryCode": "VNM",
      "countryName": "Việt Nam",
      "county": "Hồ Chí Minh",
      "city": "Quận Gò Vấp",
      "district": "Phường 3",
      "street": "Đường Phạm Văn Đồng",
      "postalCode": "71409",
      "houseNumber": "53"
    },
    "position": {
      "lat": 10.8153,
      "lng": 106.68102
    },
    "access": [
      {
        "lat": 10.81523,
        "lng": 106.68106
      }
    ],
    "distance": 207,
    "categories": [
      {
        "id": "100-1000-0000",
        "name": "Nhà hàng",
        "primary": true
      }
    ]
  },
  {
    "title": "Wedding World",
    "id": "here:pds:place:704w3gv7-1ee6692f1ca54b59908bfdbf881f4e06",
    "resultType": "place",
    "address": {
      "label": "Wedding World, 214 Đường Hồ Văn Huê, Phường 9, Quận Phú Nhuận, Hồ Chí Minh, Việt Nam",
      "countryCode": "VNM",
      "countryName": "Việt Nam",
      "county": "Hồ Chí Minh",
      "city": "Quận Phú Nhuận",
      "district": "Phường 9",
      "street": "Đường Hồ Văn Huê",
      "postalCode": "72216",
      "houseNumber": "214"
    },
    "position": {
      "lat": 10.80478,
      "lng": 106.67784
    },
    "access": [
      {
        "lat": 10.8048,
        "lng": 106.6778
      }
    ],
    "distance": 887,
    "categories": [
      {
        "id": "600-6900-0103",
        "name": "Quà tặng, đồ cổ và tác phẩm nghệ thuật",
        "primary": true
      }
    ]
  },
  {
    "title": "Yến Thị",
    "id": "here:pds:place:704w3gv7-a7819ed6d3ff48b39e2cbd78de9c30b1",
    "resultType": "place",
    "address": {
      "label": "Yến Thị, 86 Đường Thích Quảng Đức, Phường 5, Quận Phú Nhuận, Hồ Chí Minh, Việt Nam",
      "countryCode": "VNM",
      "countryName": "Việt Nam",
      "county": "Hồ Chí Minh",
      "city": "Quận Phú Nhuận",
      "district": "Phường 5",
      "street": "Đường Thích Quảng Đức",
      "postalCode": "72215",
      "houseNumber": "86"
    },
    "position": {
      "lat": 10.80543,
      "lng": 106.68226
    },
    "access": [
      {
        "lat": 10.8054,
        "lng": 106.68223
      }
    ],
    "distance": 904,
    "categories": [
      {
        "id": "600-6900-0103",
        "name": "Quà tặng, đồ cổ và tác phẩm nghệ thuật",
        "primary": true
      },
      {
        "id": "700-7200-0268",
        "name": "Bảo dưỡng \u0026 bảo trì xe máy",
        "primary": false
      },
      {
        "id": "700-7250-0136",
        "name": "Doanh nghiệp",
        "primary": false
      },
      {
        "id": "700-7400-0144",
        "name": "Dịch vụ chụp ảnh",
        "primary": false
      },
      {
        "id": "800-8200-0295",
        "name": "Đào tạo \u0026 Phát triển",
        "primary": false
      }
    ]
  },
  {
    "title": "Tiệm Tóc \u0026 Spa Nam Nữ Trái Bí",
    "id": "here:pds:place:704w3gv7-e18b012127654ab98bde9e523e1c1a7c",
    "resultType": "place",
    "address": {
      "label": "Tiệm Tóc \u0026 Spa Nam Nữ Trái Bí, 535 Đường Nguyễn Kiệm, Phường 9, Quận Phú Nhuận, Hồ Chí Minh, Việt Nam",
      "countryCode": "VNM",
      "countryName": "Việt Nam",
      "county": "Hồ Chí Minh",
      "city": "Quận Phú Nhuận",
      "district": "Phường 9",
      "street": "Đường Nguyễn Kiệm",
      "postalCode": "72216",
      "houseNumber": "535"
    },
    "position": {
      "lat": 10.80414,
      "lng": 106.67879
    },
    "access": [
      {
        "lat": 10.80414,
        "lng": 106.67885
      }
    ],
    "distance": 954,
    "categories": [
      {
        "id": "600-6900-0103",
        "name": "Quà tặng, đồ cổ và tác phẩm nghệ thuật",
        "primary": true
      },
      {
        "id": "600-6950-0000",
        "name": "Cắt tóc \u0026 Tạo mẫu",
        "primary": false
      },
      {
        "id": "700-7400-0144",
        "name": "Dịch vụ chụp ảnh",
        "primary": false
      }
    ]
  },
  {
    "title": "Bus Station",
    "id": "here:pds:place:704w3gve-a0a3dcf5804436c11f91970ff343efe6",
    "resultType": "place",
    "address": {
      "label": "Bus Station, 11 Đường Lê Quang Định, Phường 1, Quận Gò Vấp, Hồ Chí Minh, Việt Nam",
      "countryCode": "VNM",
      "countryName": "Việt Nam",
      "county": "Hồ Chí Minh",
      "city": "Quận Gò Vấp",
      "district": "Phường 1",
      "street": "Đường Lê Quang Định",
      "postalCode": "71410",
      "houseNumber": "11"
    },
    "position": {
      "lat": 10.81893,
      "lng": 106.69003
    },
    "access": [
      {
        "lat": 10.81894,
        "lng": 106.69002
      }
    ],
    "distance": 1427,
    "categories": [
      {
        "id": "400-4100-0036",
        "name": "Trạm xe buýt",
        "primary": true
      }
    ]
  },
  {
    "title": "Anzedo Tower",
    "id": "here:pds:place:704w3gvs-ebb66b3b0d299568f6e912997973547f",
    "resultType": "place",
    "address": {
      "label": "Anzedo Tower, 98 Đường Vũ Ngọc Phan, Phường 13, Quận Bình Thạnh, Hồ Chí Minh, Việt Nam",
      "countryCode": "VNM",
      "countryName": "Việt Nam",
      "county": "Hồ Chí Minh",
      "city": "Quận Bình Thạnh",
      "district": "Phường 13",
      "street": "Đường Vũ Ngọc Phan",
      "postalCode": "72311",
      "houseNumber": "98"
    },
    "position": {
      "lat": 10.82102,
      "lng": 106.70648
    },
    "access": [
      {
        "lat": 10.82097,
        "lng": 106.70647
      }
    ],
    "distance": 293,
    "categories": [
      {
        "id": "600-6800-0000",
        "name": "Quần áo \u0026 Phụ kiện",
        "primary": true
      }
    ]
  },
  {
    "title": "Shop Circle",
    "id": "here:pds:place:704w3gvs-827e6a128b114810a894131b96611aaf",
    "resultType": "place",
    "address": {
      "label": "Shop Circle, 500 Đường Nơ Trang Long, Phường 13, Quận Bình Thạnh, Hồ Chí Minh, Việt Nam",
      "countryCode": "VNM",
      "countryName": "Việt Nam",
      "county": "Hồ Chí Minh",
      "city": "Quận Bình Thạnh",
      "district": "Phường 13",
      "street": "Đường Nơ Trang Long",
      "postalCode": "72311",
      "houseNumber": "500"
    },
    "position": {
      "lat": 10.82172,
      "lng": 106.7064
    },
    "access": [
      {
        "lat": 10.82175,
        "lng": 106.70636
      }
    ],
    "distance": 325,
    "categories": [
      {
        "id": "600-6800-0000",
        "name": "Quần áo \u0026 Phụ kiện",
        "primary": true
      }
    ]
  },
  {
    "title": "Cửa Hàng Giày Dép Huế",
    "id": "here:pds:place:7041r4ve-bb010dcd925906bfbf6e0174d4ea2fcf",
    "resultType": "place",
    "address": {
      "label": "Cửa Hàng Giày Dép Huế, 360 Đường Nơ Trang Long, Phường 13, Quận Bình Thạnh, Hồ Chí Minh, Việt Nam",
      "countryCode": "VNM",
      "countryName": "Việt Nam",
      "county": "Hồ Chí Minh",
      "city": "Quận Bình Thạnh",
      "district": "Phường 13",
      "street": "Đường Nơ Trang Long",
      "postalCode": "72311",
      "houseNumber": "360"
    },
    "position": {
      "lat": 10.81892,
      "lng": 106.69992
    },
    "access": [
      {
        "lat": 10.81896,
        "lng": 106.69992
      }
    ],
    "distance": 462,
    "categories": [
      {
        "id": "600-6800-0092",
        "name": "Giày dép",
        "primary": true
      },
      {
        "id": "600-6800-0000",
        "name": "Quần áo \u0026 Phụ kiện",
        "primary": false
      }
    ]
  },
  {
    "title": "Công Ty Chuyển Phát Nhanh CT Express",
    "id": "here:pds:place:704w3gve-48cdfb01a534c533cb4218b75a6153d1",
    "resultType": "place",
    "address": {
      "label": "Công Ty Chuyển Phát Nhanh CT Express, 6 Đường Bạch Đằng, Phường 2, Quận Tân Bình, Hồ Chí Minh, Việt Nam",
      "countryCode": "VNM",
      "countryName": "Việt Nam",
      "county": "Hồ Chí Minh",
      "city": "Quận Tân Bình",
      "district": "Phường 2",
      "street": "Đường Bạch Đằng",
      "postalCode": "72108",
      "houseNumber": "6"
    },
    "position": {
      "lat": 10.81424,
      "lng": 106.67034
    },
    "access": [
      {
        "lat": 10.81429,
        "lng": 106.67033
      }
    ],
    "distance": 278,
    "categories": [
      {
        "id": "700-7450-0114",
        "name": "Bưu điện",
        "primary": true
      }
    ]
  },
  {
    "title": "VPĐD Cty CP Bưu Chính VN Và Quốc Tế",
    "id": "here:pds:place:704w3gve-06252d69d7763f0b47b3109bae775ed8",
    "resultType": "place",
    "address": {
      "label": "VPĐD Cty CP Bưu Chính VN Và Quốc Tế, B52 Đường Bạch Đằng, Phường 2, Quận Tân Bình, Hồ Chí Minh, Việt Nam",
      "countryCode": "VNM",
      "countryName": "Việt Nam",
      "county": "Hồ Chí Minh",
      "city": "Quận Tân Bình",
      "district": "Phường 2",
      "street": "Đường Bạch Đằng",
      "postalCode": "72108",
      "houseNumber": "B52"
    },
    "position": {
      "lat": 10.81548,
      "lng": 106.66854
    },
    "access": [
      {
        "lat": 10.81557,
        "lng": 106.66845
      }
    ],
    "distance": 301,
    "categories": [
      {
        "id": "700-7450-0114",
        "name": "Bưu điện",
        "primary": true
      }
    ]
  },
  {
    "title": "Sân Khấu Kịch Phú Nhuận",
    "id": "here:pds:place:704xjxn4-07bceee481e60f82d831e2cc6235095c",
    "resultType": "place",
    "address": {
      "label": "Sân Khấu Kịch Phú Nhuận, 70-72 Đường Nguyễn Văn Trỗi, Phường 11, Quận Phú Nhuận, Hồ Chí Minh, Việt Nam",
      "countryCode": "VNM",
      "countryName": "Việt Nam",
      "county": "Hồ Chí Minh",
      "city": "Quận Phú Nhuận",
      "district": "Phường 11",
      "street": "Đường Nguyễn Văn Trỗi",
      "postalCode": "72206",
      "houseNumber": "70-72"
    },
    "position": {
      "lat": 10.79544,
      "lng": 106.67626
    },
    "access": [
      {
        "lat": 10.79524,
        "lng": 106.67614
      }
    ],
    "distance": 1273,
    "categories": [
      {
        "id": "200-2200-0020",
        "name": "Trung tâm biểu diễn nghệ thuật",
        "primary": true
      },
      {
        "id": "200-2000-0000",
        "name": "Giải trí về đêm",
        "primary": false
      },
      {
        "id": "200-2000-0015",
        "name": "Giải trí hoặc âm nhạc sống",
        "primary": false
      },
      {
        "id": "200-2100-0019",
        "name": "Rạp chiếu phim",
        "primary": false
      },
      {
        "id": "200-2200-0000",
        "name": "Nhà hát, Âm nhạc \u0026 Văn hóa",
        "primary": false
      }
    ]
  },
  {
    "title": "Sky Rooftop",
    "id": "here:pds:place:704w3gv7-7fb46ac7dbac3cdb432d14d8fc6c9c5b",
    "resultType": "place",
    "address": {
      "label": "Sky Rooftop, 98 Đường Phùng Văn Cung, Phường 4, Quận Phú Nhuận, Hồ Chí Minh, Việt Nam",
      "countryCode": "VNM",
      "countryName": "Việt Nam",
      "county": "Hồ Chí Minh",
      "city": "Quận Phú Nhuận",
      "district": "Phường 4",
      "street": "Đường Phùng Văn Cung",
      "postalCode": "72214",
      "houseNumber": "98"
    },
    "position": {
      "lat": 10.80537,
      "lng": 106.68135
    },
    "access": [
      {
        "lat": 10.8055,
        "lng": 106.68141
      }
    ],
    "distance": 299,
    "categories": [
      {
        "id": "200-2000-0011",
        "name": "Bar hoặc Quán rượu",
        "primary": true
      }
    ]
  },
  {
    "title": "AMIGO1",
    "id": "here:pds:place:7046e4ae-313377c503c424235278c3a09e493ac3",
    "resultType": "place",
    "address": {
      "label": "AMIGO1, 32 Đường Phùng Văn Cung, Phường 4, Quận Phú Nhuận, Hồ Chí Minh, Việt Nam",
      "countryCode": "VNM",
      "countryName": "Việt Nam",
      "county": "Hồ Chí Minh",
      "city": "Quận Phú Nhuận",
      "district": "Phường 4",
      "street": "Đường Phùng Văn Cung",
      "postalCode": "72214",
      "houseNumber": "32"
    },
    "position": {
      "lat": 10.80562,
      "lng": 106.68073
    },
    "access": [
      {
        "lat": 10.80573,
        "lng": 106.68081
      }
    ],
    "distance": 372,
    "categories": [
      {
        "id": "200-2000-0011",
        "name": "Bar hoặc Quán rượu",
        "primary": true
      }
    ]
  },
  {
    "title": "Cty Xdkbds\u0026DV Davis NG",
    "id": "here:pds:place:704w3gv7-39766b933ae647babb10da412ea9bd5f",
    "resultType": "place",
    "address": {
      "label": "Cty Xdkbds\u0026DV Davis NG, 33 Hẻm 50/2 Đường Nguyễn Đình Chiểu, Phường 4, Quận Phú Nhuận, Hồ Chí Minh, Việt Nam",
      "countryCode": "VNM",
      "countryName": "Việt Nam",
      "county": "Hồ Chí Minh",
      "city": "Quận Phú Nhuận",
      "district": "Phường 4",
      "street": "Hẻm 50/2 Đường Nguyễn Đình Chiểu",
      "postalCode": "72214",
      "houseNumber": "33"
    },
    "position": {
      "lat": 10.80367,
      "lng": 106.68019
    },
    "access": [
      {
        "lat": 10.80362,
        "lng": 106.6802
      }
    ],
    "distance": 398,
    "categories": [
      {
        "id": "200-2000-0011",
        "name": "Bar hoặc Quán rượu",
        "primary": true
      }
    ]
  },
  {
    "title": "Vitamin Bar II",
    "id": "here:pds:place:704jx7ps-30b223fc1c9f00443a793f9d7907fec7",
    "resultType": "place",
    "address": {
      "label": "Vitamin Bar II, 71 Đường Hoàng Hoa Thám, Phường 6, Quận Bình Thạnh, Hồ Chí Minh, Việt Nam",
      "countryCode": "VNM",
      "countryName": "Việt Nam",
      "county": "Hồ Chí Minh",
      "city": "Quận Bình Thạnh",
      "district": "Phường 6",
      "street": "Đường Hoàng Hoa Thám",
      "postalCode": "72315",
      "houseNumber": "71"
    },
    "position": {
      "lat": 10.80628,
      "lng": 106.69017
    },
    "access": [
      {
        "lat": 10.80644,
        "lng": 106.69021
      }
    ],
    "distance": 1078,
    "categories": [
      {
        "id": "200-2000-0011",
        "name": "Bar hoặc Quán rượu",
        "primary": true
      },
      {
        "id": "100-1100-0000",
        "name": "Cà Phê/Trà",
        "primary": false
      },
      {
        "id": "100-1100-0010",
        "name": "Quán cà phê",
        "primary": false
      },
      {
        "id": "200-2000-0000",
        "name": "Giải trí về đêm",
        "primary": false
      }
    ]
  },
  {
    "title": "Tha Swiss House",
    "id": "here:pds:place:70489df5-3ade5c4856207892299992f94571b086",
    "resultType": "place",
    "address": {
      "label": "Tha Swiss House, 282 Đường Phạm Văn Đồng, Phường 1, Quận Gò Vấp, Hồ Chí Minh, Việt Nam",
      "countryCode": "VNM",
      "countryName": "Việt Nam",
      "county": "Hồ Chí Minh",
      "city": "Quận Gò Vấp",
      "district": "Phường 1",
      "street": "Đường Phạm Văn Đồng",
      "postalCode": "71410",
      "houseNumber": "282"
    },
    "position": {
      "lat": 10.81877,
      "lng": 106.6886
    },
    "access": [
      {
        "lat": 10.81878,
        "lng": 106.6886
      }
    ],
    "distance": 1126,
    "categories": [
      {
        "id": "200-2000-0011",
        "name": "Bar hoặc Quán rượu",
        "primary": true
      }
    ]
  },
  {
    "title": "Nước Mía Giải Khát",
    "id": "here:pds:place:704w3gve-52340263c6b9cee9faa70b8c9204568e",
    "resultType": "place",
    "address": {
      "label": "Nước Mía Giải Khát, 207/96 Hẻm 207 Nguyễn Văn Đậu, Phường 11, Quận Bình Thạnh, Hồ Chí Minh, Việt Nam",
      "countryCode": "VNM",
      "countryName": "Việt Nam",
      "county": "Hồ Chí Minh",
      "city": "Quận Bình Thạnh",
      "district": "Phường 11",
      "street": "Hẻm 207 Nguyễn Văn Đậu",
      "postalCode": "72313",
      "houseNumber": "207/96"
    },
    "position": {
      "lat": 10.81447,
      "lng": 106.69155
    },
    "access": [
      {
        "lat": 10.81447,
        "lng": 106.69148
      }
    ],
    "distance": 1134,
    "categories": [
      {
        "id": "200-2000-0011",
        "name": "Bar hoặc Quán rượu",
        "primary": true
      }
    ]
  },
  {
    "title": "Nhat Anh Store",
    "id": "here:pds:place:704w3gve-8eb585eb146375ffc8c52b72420e7d35",
    "resultType": "place",
    "address": {
      "label": "Nhat Anh Store, 217 Đường Nguyễn Thượng Hiền, Phường 6, Quận Bình Thạnh, Hồ Chí Minh, Việt Nam",
      "countryCode": "VNM",
      "countryName": "Việt Nam",
      "county": "Hồ Chí Minh",
      "city": "Quận Bình Thạnh",
      "district": "Phường 6",
      "street": "Đường Nguyễn Thượng Hiền",
      "postalCode": "72315",
      "houseNumber": "217"
    },
    "position": {
      "lat": 10.80637,
      "lng": 106.68469
    },
    "access": [
      {
        "lat": 10.80633,
        "lng": 106.68466
      }
    ],
    "distance": 633,
    "categories": [
      {
        "id": "600-6900-0103",
        "name": "Quà tặng, đồ cổ và tác phẩm nghệ thuật",
        "primary": true
      },
      {
        "id": "600-6800-0000",
        "name": "Quần áo \u0026 Phụ kiện",
        "primary": false
      },
      {
        "id": "600-6800-0092",
        "name": "Giày dép",
        "primary": false
      },
      {
        "id": "600-6900-0096",
        "name": "Cửa hàng chuyên dụng",
        "primary": false
      }
    ]
  },
  {
    "title": "Naka Shop",
    "id": "here:pds:place:704w3gv7-c487ed47590102b0aa467b28ac069075",
    "resultType": "place",
    "address": {
      "label": "Naka Shop, 87 Đường Nguyễn Văn Đậu, Phường 5, Quận Bình Thạnh, Hồ Chí Minh, Việt Nam",
      "countryCode": "VNM",
      "countryName": "Việt Nam",
      "county": "Hồ Chí Minh",
      "city": "Quận Bình Thạnh",
      "district": "Phường 5",
      "street": "Đường Nguyễn Văn Đậu",
      "postalCode": "72314",
      "houseNumber": "87"
    },
    "position": {
      "lat": 10.80875,
      "lng": 106.68841
    },
    "access": [
      {
        "lat": 10.80874,
        "lng": 106.68843
      }
    ],
    "distance": 784,
    "categories": [
      {
        "id": "600-6900-0103",
        "name": "Quà tặng, đồ cổ và tác phẩm nghệ thuật",
        "primary": true
      }
    ]
  },
  {
    "title": "Cửa Hàng Thủ Công Mỹ Nghệ Hacota",
    "id": "here:pds:place:704jx7ps-9a8795ef879e0405340e4eb9472d1d69",
    "resultType": "place",
    "address": {
      "label": "Cửa Hàng Thủ Công Mỹ Nghệ Hacota, 8 Đường Nguyễn Bỉnh Khiêm, Phường Đa Kao, Quận 1, Hồ Chí Minh, Việt Nam",
      "countryCode": "VNM",
      "countryName": "Việt Nam",
      "county": "Hồ Chí Minh",
      "city": "Quận 1",
      "district": "Phường Đa Kao",
      "street": "Đường Nguyễn Bỉnh Khiêm",
      "postalCode": "71007",
      "houseNumber": "8"
    },
    "position": {
      "lat": 10.78989,
      "lng": 106.7024
    },
    "access": [
      {
        "lat": 10.78976,
        "lng": 106.70228
      }
    ],
    "distance": 924,
    "categories": [
      {
        "id": "600-6900-0096",
        "name": "Cửa hàng chuyên dụng",
        "primary": true
      },
      {
        "id": "600-6100-0062",
        "name": "Trung tâm mua sắm hoặc trung tâm thương mại",
        "primary": false
      },
      {
        "id": "600-6900-0307",
        "name": "Đồ thủ công mỹ nghệ",
        "primary": false
      }
    ]
  },
  {
    "title": "Bách Hoá Đakao",
    "id": "here:pds:place:704w3gv7-6a3ff2ddad814032aef3e80cf810a82b",
    "resultType": "place",
    "address": {
      "label": "Bách Hoá Đakao, 23 Đường Nguyễn Huy Tự, Phường Đa Kao, Quận 1, Hồ Chí Minh, Việt Nam",
      "countryCode": "VNM",
      "countryName": "Việt Nam",
      "county": "Hồ Chí Minh",
      "city": "Quận 1",
      "district": "Phường Đa Kao",
      "street": "Đường Nguyễn Huy Tự",
      "postalCode": "71007",
      "houseNumber": "23"
    },
    "position": {
      "lat": 10.79256,
      "lng": 106.69661
    },
    "access": [
      {
        "lat": 10.79266,
        "lng": 106.6966
      }
    ],
    "distance": 1406,
    "categories": [
      {
        "id": "600-6300-0066",
        "name": "Siêu thị",
        "primary": true
      },
      {
        "id": "600-6100-0062",
        "name": "Trung tâm mua sắm hoặc trung tâm thương mại",
        "primary": false
      },
      {
        "id": "600-6900-0247",
        "name": "Chợ",
        "primary": false
      }
    ]
  },
  {
    "title": "Bánh Bạch Tuộc Takoyaki - Ngô Tất Tố",
    "id": "here:pds:place:704w3gvk-3086f0ee6b8a485884d6977d624e6d85",
    "resultType": "place",
    "address": {
      "label": "Bánh Bạch Tuộc Takoyaki - Ngô Tất Tố, 35 Đường Ngô Tất Tố, Phường 19, Quận Bình Thạnh, Hồ Chí Minh, Việt Nam",
      "countryCode": "VNM",
      "countryName": "Việt Nam",
      "county": "Hồ Chí Minh",
      "city": "Quận Bình Thạnh",
      "district": "Phường 19",
      "street": "Đường Ngô Tất Tố",
      "postalCode": "72323",
      "houseNumber": "35"
    },
    "position": {
      "lat": 10.79313,
      "lng": 106.71032
    },
    "access": [
      {
        "lat": 10.79309,
        "lng": 106.71031
      }
    ],
    "distance": 206,
    "categories": [
      {
        "id": "600-6300-0064",
        "name": "Đặc sản \u0026 Đồ uống",
        "primary": true
      },
      {
        "id": "100-1000-0001",
        "name": "Quán ăn bình dân",
        "primary": false
      }
    ]
  },
  {
    "title": "Vịt Lộn 72",
    "id": "here:pds:place:704w3gvk-35002b357efc8ecd36d4090fdbc3972c",
    "resultType": "place",
    "address": {
      "label": "Vịt Lộn 72, 72 Đường Nguyễn Văn Lạc, Phường 19, Quận Bình Thạnh, Hồ Chí Minh, Việt Nam",
      "countryCode": "VNM",
      "countryName": "Việt Nam",
      "county": "Hồ Chí Minh",
      "city": "Quận Bình Thạnh",
      "district": "Phường 19",
      "street": "Đường Nguyễn Văn Lạc",
      "postalCode": "72323",
      "houseNumber": "72"
    },
    "position": {
      "lat": 10.79271,
      "lng": 106.70905
    },
    "access": [
      {
        "lat": 10.79269,
        "lng": 106.70909
      }
    ],
    "distance": 222,
    "categories": [
      {
        "id": "600-6300-0064",
        "name": "Đặc sản \u0026 Đồ uống",
        "primary": true
      }
    ]
  },
  {
    "title": "Cơm Tấm Bình Dân",
    "id": "here:pds:place:7041r4ve-44625a5d0d7c0ec1ffe606adc58f5d03",
    "resultType": "place",
    "address": {
      "label": "Cơm Tấm Bình Dân, 126 Đường Xô Viết Nghệ Tĩnh, Phường 17, Quận Bình Thạnh, Hồ Chí Minh, Việt Nam",
      "countryCode": "VNM",
      "countryName": "Việt Nam",
      "county": "Hồ Chí Minh",
      "city": "Quận Bình Thạnh",
      "district": "Phường 17",
      "street": "Đường Xô Viết Nghệ Tĩnh",
      "postalCode": "72321",
      "houseNumber": "126"
    },
    "position": {
      "lat": 10.79646,
      "lng": 106.71041
    },
    "access": [
      {
        "lat": 10.79647,
        "lng": 106.71039
      }
    ],
    "distance": 231,
    "categories": [
      {
        "id": "600-6800-0000",
        "name": "Quần áo \u0026 Phụ kiện",
        "primary": true
      },
      {
        "id": "600-6300-0064",
        "name": "Đặc sản \u0026 Đồ uống",
        "primary": false
      },
      {
        "id": "600-6800-0092",
        "name": "Giày dép",
        "primary": false
      }
    ]
  },
  {
    "title": "Shop Thời Trang Bull \u0026 Bell",
    "id": "here:pds:place:704w3gvk-2ebbbdb5791f41e294c6ff620c0a5775",
    "resultType": "place",
    "address": {
      "label": "Shop Thời Trang Bull \u0026 Bell, 50 Đường Xô Viết Nghệ Tĩnh, Phường 17, Quận Bình Thạnh, Hồ Chí Minh, Việt Nam",
      "countryCode": "VNM",
      "countryName": "Việt Nam",
      "county": "Hồ Chí Minh",
      "city": "Quận Bình Thạnh",
      "district": "Phường 17",
      "street": "Đường Xô Viết Nghệ Tĩnh",
      "postalCode": "72321",
      "houseNumber": "50"
    },
    "position": {
      "lat": 10.79437,
      "lng": 106.70719
    },
    "access": [
      {
        "lat": 10.79439,
        "lng": 106.70719
      }
    ],
    "distance": 258,
    "categories": [
      {
        "id": "600-6800-0000",
        "name": "Quần áo \u0026 Phụ kiện",
        "primary": true
      }
    ]
  },
  {
    "title": "Điểm Dừng Xe Buýt",
    "id": "here:pds:place:704w3gvk-73bfc3b45ad54154ceb3cd17f74cbc23",
    "resultType": "place",
    "address": {
      "label": "Điểm Dừng Xe Buýt, 21 Đường Ngô Tất Tố, Phường 19, Quận Bình Thạnh, Hồ Chí Minh, Việt Nam",
      "countryCode": "VNM",
      "countryName": "Việt Nam",
      "county": "Hồ Chí Minh",
      "city": "Quận Bình Thạnh",
      "district": "Phường 19",
      "street": "Đường Ngô Tất Tố",
      "postalCode": "72323",
      "houseNumber": "21"
    },
    "position": {
      "lat": 10.79269,
      "lng": 106.7117
    },
    "access": [
      {
        "lat": 10.7927,
        "lng": 106.7117
      }
    ],
    "distance": 752,
    "categories": [
      {
        "id": "400-4100-0036",
        "name": "Trạm xe buýt",
        "primary": true
      }
    ]
  },
  {
    "title": "Điểm Dừng Xe Buýt",
    "id": "here:pds:place:704w3gvk-dadb192e8a6b4ddfa403af83519bf393",
    "resultType": "place",
    "address": {
      "label": "Điểm Dừng Xe Buýt, 296 Đường Điện Biên Phủ, Phường 22, Quận Bình Thạnh, Hồ Chí Minh, Việt Nam",
      "countryCode": "VNM",
      "countryName": "Việt Nam",
      "county": "Hồ Chí Minh",
      "city": "Quận Bình Thạnh",
      "district": "Phường 22",
      "street": "Đường Điện Biên Phủ",
      "postalCode": "72324",
      "houseNumber": "296"
    },
    "position": {
      "lat": 10.79844,
      "lng": 106.71934
    },
    "access": [
      {
        "lat": 10.79853,
        "lng": 106.71939
      }
    ],
    "distance": 1491,
    "categories": [
      {
        "id": "400-4100-0036",
        "name": "Trạm xe buýt",
        "primary": true
      },
      {
        "id": "400-4100-0041",
        "name": "Dịch vụ vận chuyển",
        "primary": false
      }
    ]
  },
  {
    "title": "RCPC CN3",
    "id": "here:pds:place:704w3gvk-b2c14d6747205096b6ef784d13651086",
    "resultType": "place",
    "address": {
      "label": "RCPC CN3, 20 Hẻm 220 Xô Viết Nghệ Tĩnh, Phường 21, Quận Bình Thạnh, Hồ Chí Minh, Việt Nam",
      "countryCode": "VNM",
      "countryName": "Việt Nam",
      "county": "Hồ Chí Minh",
      "city": "Quận Bình Thạnh",
      "district": "Phường 21",
      "street": "Hẻm 220 Xô Viết Nghệ Tĩnh",
      "postalCode": "72322",
      "houseNumber": "20"
    },
    "position": {
      "lat": 10.79848,
      "lng": 106.71153
    },
    "access": [
      {
        "lat": 10.79852,
        "lng": 106.71154
      }
    ],
    "distance": 893,
    "categories": [
      {
        "id": "200-2100-0019",
        "name": "Rạp chiếu phim",
        "primary": true
      },
      {
        "id": "100-1100-0010",
        "name": "Quán cà phê",
        "primary": false
      },
      {
        "id": "600-6900-0096",
        "name": "Cửa hàng chuyên dụng",
        "primary": false
      }
    ]
  },
  {
    "title": "Studio Hãng Phim Nguyễn Đình Chiểu Cầu Bông",
    "id": "here:pds:place:704jx7ps-fa55b2de32b801d36c36100d99ce3390",
    "resultType": "place",
    "address": {
      "label": "Studio Hãng Phim Nguyễn Đình Chiểu Cầu Bông, 207 Đường Đinh Tiên Hoàng, Phường Tân Định, Quận 1, Hồ Chí Minh, Việt Nam",
      "countryCode": "VNM",
      "countryName": "Việt Nam",
      "county": "Hồ Chí Minh",
      "city": "Quận 1",
      "district": "Phường Tân Định",
      "street": "Đường Đinh Tiên Hoàng",
      "postalCode": "71008",
      "houseNumber": "207"
    },
    "position": {
      "lat": 10.79214,
      "lng": 106.69587
    },
    "access": [
      {
        "lat": 10.79213,
        "lng": 106.69589
      }
    ],
    "distance": 986,
    "categories": [
      {
        "id": "200-2100-0019",
        "name": "Rạp chiếu phim",
        "primary": true
      },
      {
        "id": "200-2200-0000",
        "name": "Nhà hát, Âm nhạc \u0026 Văn hóa",
        "primary": false
      }
    ]
  },
  {
    "title": "Central Plaza",
    "id": "here:pds:place:704jx7ps-5ad03f6e20c10317567cfcb8cade1d28",
    "resultType": "place",
    "address": {
      "label": "Central Plaza, 17 Đường Lê Duẩn, Phường Bến Nghé, Quận 1, Hồ Chí Minh, Việt Nam",
      "countryCode": "VNM",
      "countryName": "Việt Nam",
      "county": "Hồ Chí Minh",
      "city": "Quận 1",
      "district": "Phường Bến Nghé",
      "street": "Đường Lê Duẩn",
      "postalCode": "71006",
      "houseNumber": "17"
    },
    "position": {
      "lat": 10.78385,
      "lng": 106.70226
    },
    "access": [
      {
        "lat": 10.78408,
        "lng": 106.702
      }
    ],
    "distance": 949,
    "categories": [
      {
        "id": "700-7250-0136",
        "name": "Doanh nghiệp",
        "primary": true
      },
      {
        "id": "600-6100-0062",
        "name": "Trung tâm mua sắm hoặc trung tâm thương mại",
        "primary": false
      },
      {
        "id": "900-9300-0221",
        "name": "Tòa nhà chung cư",
        "primary": false
      }
    ]
  },
  {
    "title": "Tiệm Vàng Trung Nam",
    "id": "here:pds:place:704jx7ps-c45347ebd77e056e48f04a1f71c54aa6",
    "resultType": "place",
    "address": {
      "label": "Tiệm Vàng Trung Nam, 109 Đường Nguyễn Hữu Cầu, Phường Tân Định, Quận 1, Hồ Chí Minh, Việt Nam",
      "countryCode": "VNM",
      "countryName": "Việt Nam",
      "county": "Hồ Chí Minh",
      "city": "Quận 1",
      "district": "Phường Tân Định",
      "street": "Đường Nguyễn Hữu Cầu",
      "postalCode": "71008",
      "houseNumber": "109"
    },
    "position": {
      "lat": 10.7899,
      "lng": 106.69051
    },
    "access": [
      {
        "lat": 10.78994,
        "lng": 106.69044
      }
    ],
    "distance": 1438,
    "categories": [
      {
        "id": "600-6900-0096",
        "name": "Cửa hàng chuyên dụng",
        "primary": true
      },
      {
        "id": "600-6100-0062",
        "name": "Trung tâm mua sắm hoặc trung tâm thương mại",
        "primary": false
      },
      {
        "id": "600-6800-0000",
        "name": "Quần áo \u0026 Phụ kiện",
        "primary": false
      },
      {
        "id": "600-6900-0101",
        "name": "Hoa \u0026 Đồ trang sức",
        "primary": false
      }
    ]
  },
  {
    "title": "Soyn",
    "id": "here:pds:place:704w3gv7-74271f9dcc1ef850cfcb39f0c8ab3f74",
    "resultType": "place",
    "address": {
      "label": "Soyn, 27 Đường Mai Thị Lựu, Phường Đa Kao, Quận 1, Hồ Chí Minh, Việt Nam",
      "countryCode": "VNM",
      "countryName": "Việt Nam",
      "county": "Hồ Chí Minh",
      "city": "Quận 1",
      "district": "Phường Đa Kao",
      "street": "Đường Mai Thị Lựu",
      "postalCode": "71007",
      "houseNumber": "27"
    },
    "position": {
      "lat": 10.79083,
      "lng": 106.6994
    },
    "access": [
      {
        "lat": 10.79095,
        "lng": 106.69936
      }
    ],
    "distance": 471,
    "categories": [
      {
        "id": "600-6900-0096",
        "name": "Cửa hàng chuyên dụng",
        "primary": true
      },
      {
        "id": "300-3000-0024",
        "name": "Bộ sưu tập",
        "primary": false
      },
      {
        "id": "600-6500-0072",
        "name": "Cửa hàng điện tử gia dụng",
        "primary": false
      },
      {
        "id": "600-6600-0077",
        "name": "Cửa hàng phần cứng hoặc trung tâm DIY",
        "primary": false
      },
      {
        "id": "600-6600-0078",
        "name": "Cửa hàng bán đồ gia dụng/Nội thất",
        "primary": false
      },
      {
        "id": "600-6600-0080",
        "name": "Phụ kiện nội thất và gia đình",
        "primary": false
      },
      {
        "id": "600-6900-0000",
        "name": "Hàng tiêu dùng",
        "primary": false
      },
      {
        "id": "600-6900-0103",
        "name": "Quà tặng, đồ cổ và tác phẩm nghệ thuật",
        "primary": false
      },
      {
        "id": "700-7250-0136",
        "name": "Doanh nghiệp",
        "primary": false
      },
      {
        "id": "700-7400-0144",
        "name": "Dịch vụ chụp ảnh",
        "primary": false
      }
    ]
  },
  {
    "title": "Jury Shop",
    "id": "here:pds:place:704w3gvk-309b8e9eeb9e59f0a7657b8086f06fb2",
    "resultType": "place",
    "address": {
      "label": "Jury Shop, 65 Đường Xô Viết Nghệ Tĩnh, Phường 17, Quận Bình Thạnh, Hồ Chí Minh, Việt Nam",
      "countryCode": "VNM",
      "countryName": "Việt Nam",
      "county": "Hồ Chí Minh",
      "city": "Quận Bình Thạnh",
      "district": "Phường 17",
      "street": "Đường Xô Viết Nghệ Tĩnh",
      "postalCode": "72321",
      "houseNumber": "65"
    },
    "position": {
      "lat": 10.79351,
      "lng": 106.70809
    },
    "access": [
      {
        "lat": 10.7935,
        "lng": 106.7081
      }
    ],
    "distance": 525,
    "categories": [
      {
        "id": "600-6900-0103",
        "name": "Quà tặng, đồ cổ và tác phẩm nghệ thuật",
        "primary": true
      }
    ]
  },
  {
    "title": "Xướng Rồng Đà Lạt",
    "id": "here:pds:place:704d408k-6c519ce319d808dea8a42d18fe74d156",
    "resultType": "place",
    "address": {
      "label": "Xướng Rồng Đà Lạt, 84 Đường Nguyễn Cửu Vân, Phường 17, Quận Bình Thạnh, Hồ Chí Minh, Việt Nam",
      "countryCode": "VNM",
      "countryName": "Việt Nam",
      "county": "Hồ Chí Minh",
      "city": "Quận Bình Thạnh",
      "district": "Phường 17",
      "street": "Đường Nguyễn Cửu Vân",
      "postalCode": "72321",
      "houseNumber": "84"
    },
    "position": {
      "lat": 10.79668,
      "lng": 106.70536
    },
    "access": [
      {
        "lat": 10.79664,
        "lng": 106.70533
      }
    ],
    "distance": 529,
    "categories": [
      {
        "id": "600-6900-0103",
        "name": "Quà tặng, đồ cổ và tác phẩm nghệ thuật",
        "primary": true
      }
    ]
  },
  {
    "title": "Cửa Hàng Tạp Hóa Shop 111 Đinh Tiên Hoàng",
    "id": "here:pds:place:704jx7ps-eb747295c13e0f4d617dfcdbd22586fd",
    "resultType": "place",
    "address": {
      "label": "Cửa Hàng Tạp Hóa Shop 111 Đinh Tiên Hoàng, 111 Đường Đinh Tiên Hoàng, Phường Đa Kao, Quận 1, Hồ Chí Minh, Việt Nam",
      "countryCode": "VNM",
      "countryName": "Việt Nam",
      "county": "Hồ Chí Minh",
      "city": "Quận 1",
      "district": "Phường Đa Kao",
      "street": "Đường Đinh Tiên Hoàng",
      "postalCode": "71007",
      "houseNumber": "111"
    },
    "position": {
      "lat": 10.79059,
      "lng": 106.69718
    },
    "access": [
      {
        "lat": 10.79062,
        "lng": 106.69721
      }
    ],
    "distance": 207,
    "categories": [
      {
        "id": "600-6000-0061",
        "name": "Cửa hàng tiện lợi",
        "primary": true
      },
      {
        "id": "600-6200-0063",
        "name": "Cửa hàng bách hóa",
        "primary": false
      }
    ]
  },
  {
    "title": "Cửa Hàng 45 Điện Biên Phủ",
    "id": "here:pds:place:704jx7ps-4be12ebe40c4072d5a8163578c483f09",
    "resultType": "place",
    "address": {
      "label": "Cửa Hàng 45 Điện Biên Phủ, 45 Đường Điện Biên Phủ, Phường Đa Kao, Quận 1, Hồ Chí Minh, Việt Nam",
      "countryCode": "VNM",
      "countryName": "Việt Nam",
      "county": "Hồ Chí Minh",
      "city": "Quận 1",
      "district": "Phường Đa Kao",
      "street": "Đường Điện Biên Phủ",
      "postalCode": "71007",
      "houseNumber": "45"
    },
    "position": {
      "lat": 10.79114,
      "lng": 106.69839
    },
    "access": [
      {
        "lat": 10.79121,
        "lng": 106.6983
      }
    ],
    "distance": 294,
    "categories": [
      {
        "id": "600-6000-0061",
        "name": "Cửa hàng tiện lợi",
        "primary": true
      },
      {
        "id": "600-6900-0000",
        "name": "Hàng tiêu dùng",
        "primary": false
      },
      {
        "id": "600-6900-0096",
        "name": "Cửa hàng chuyên dụng",
        "primary": false
      }
    ]
  },
  {
    "title": "The Juice Bar",
    "id": "here:pds:place:704xjxn4-c4d82d4c9ba10dc2fcf4c0152fb51e50",
    "resultType": "place",
    "address": {
      "label": "The Juice Bar, 45 Đường Võ Thị Sáu, Phường Tân Định, Quận 1, Hồ Chí Minh, Việt Nam",
      "countryCode": "VNM",
      "countryName": "Việt Nam",
      "county": "Hồ Chí Minh",
      "city": "Quận 1",
      "district": "Phường Tân Định",
      "street": "Đường Võ Thị Sáu",
      "postalCode": "71008",
      "houseNumber": "45"
    },
    "position": {
      "lat": 10.79047,
      "lng": 106.69458
    },
    "access": [
      {
        "lat": 10.79051,
        "lng": 106.69455
      }
    ],
    "distance": 205,
    "categories": [
      {
        "id": "600-6300-0064",
        "name": "Đặc sản \u0026 Đồ uống",
        "primary": true
      },
      {
        "id": "100-1100-0010",
        "name": "Quán cà phê",
        "primary": false
      },
      {
        "id": "200-2000-0011",
        "name": "Bar hoặc Quán rượu",
        "primary": false
      }
    ]
  },
  {
    "title": "DNTN Kim Liên",
    "id": "here:pds:place:704w3gv7-5456c669e91f4c02a497a165507b6248",
    "resultType": "place",
    "address": {
      "label": "DNTN Kim Liên, 98 Đường Điện Biên Phủ, Phường Đa Kao, Quận 1, Hồ Chí Minh, Việt Nam",
      "countryCode": "VNM",
      "countryName": "Việt Nam",
      "county": "Hồ Chí Minh",
      "city": "Quận 1",
      "district": "Phường Đa Kao",
      "street": "Đường Điện Biên Phủ",
      "postalCode": "71007",
      "houseNumber": "98"
    },
    "position": {
      "lat": 10.7898,
      "lng": 106.69691
    },
    "access": [
      {
        "lat": 10.78977,
        "lng": 106.69694
      }
    ],
    "distance": 260,
    "categories": [
      {
        "id": "600-6300-0064",
        "name": "Đặc sản \u0026 Đồ uống",
        "primary": true
      }
    ]
  },
  {
    "title": "Shawarma Bánh Mì Tây",
    "id": "here:pds:place:704w3gv7-bf0669a979a482c0af5e4c7dc3341e3e",
    "resultType": "place",
    "address": {
      "label": "Shawarma Bánh Mì Tây, 152 Đường Trường Sa, Phường 1, Quận Bình Thạnh, Hồ Chí Minh, Việt Nam",
      "countryCode": "VNM",
      "countryName": "Việt Nam",
      "county": "Hồ Chí Minh",
      "city": "Quận Bình Thạnh",
      "district": "Phường 1",
      "street": "Đường Trường Sa",
      "postalCode": "72318",
      "houseNumber": "152"
    },
    "position": {
      "lat": 10.79402,
      "lng": 106.69735
    },
    "access": [
      {
        "lat": 10.794,
        "lng": 106.69735
      }
    ],
    "distance": 293,
    "categories": [
      {
        "id": "600-6300-0064",
        "name": "Đặc sản \u0026 Đồ uống",
        "primary": true
      },
      {
        "id": "100-1000-0004",
        "name": "Chợ/Gian hàng ẩm thực",
        "primary": false
      }
    ]
  },
  {
    "title": "Maiden",
    "id": "here:pds:place:704cd6c4-0c7011a287bab7c19e375a9ae4ec2523",
    "resultType": "place",
    "address": {
      "label": "Maiden, 84A Đường Trần Quốc Toản, Phường Võ Thị Sáu, Quận 3, Hồ Chí Minh, Việt Nam",
      "countryCode": "VNM",
      "countryName": "Việt Nam",
      "county": "Hồ Chí Minh",
      "city": "Quận 3",
      "district": "Phường Võ Thị Sáu",
      "street": "Đường Trần Quốc Toản",
      "postalCode": "72415",
      "houseNumber": "84A"
    },
    "position": {
      "lat": 10.78738,
      "lng": 106.68819
    },
    "access": [
      {
        "lat": 10.78732,
        "lng": 106.68828
      }
    ],
    "distance": 283,
    "categories": [
      {
        "id": "200-2000-0011",
        "name": "Bar hoặc Quán rượu",
        "primary": true
      }
    ]
  },
  {
    "title": "Ngân Hà",
    "id": "here:pds:place:704w3gv7-9a248718f9ae2daca29be762f37cd6d9",
    "resultType": "place",
    "address": {
      "label": "Ngân Hà, 215 Đường Điện Biên Phủ, Phường Võ Thị Sáu, Quận 3, Hồ Chí Minh, Việt Nam",
      "countryCode": "VNM",
      "countryName": "Việt Nam",
      "county": "Hồ Chí Minh",
      "city": "Quận 3",
      "district": "Phường Võ Thị Sáu",
      "street": "Đường Điện Biên Phủ",
      "postalCode": "72415",
      "houseNumber": "215"
    },
    "position": {
      "lat": 10.78443,
      "lng": 106.69182
    },
    "access": [
      {
        "lat": 10.78447,
        "lng": 106.69176
      }
    ],
    "distance": 284,
    "categories": [
      {
        "id": "100-1000-0007",
        "name": "Cafeteria",
        "primary": true
      },
      {
        "id": "100-1000-0000",
        "name": "Nhà hàng",
        "primary": false
      },
      {
        "id": "100-1100-0000",
        "name": "Cà Phê/Trà",
        "primary": false
      },
      {
        "id": "100-1100-0010",
        "name": "Quán cà phê",
        "primary": false
      },
      {
        "id": "200-2000-0000",
        "name": "Giải trí về đêm",
        "primary": false
      },
      {
        "id": "200-2000-0011",
        "name": "Bar hoặc Quán rượu",
        "primary": false
      }
    ]
  },
  {
    "title": "The Oasis",
    "id": "here:pds:place:704w3gv7-2e85820c359547f4877c7768e5995818",
    "resultType": "place",
    "address": {
      "label": "The Oasis, 169 Đường Võ Thị Sáu, Phường Võ Thị Sáu, Quận 3, Hồ Chí Minh, Việt Nam",
      "countryCode": "VNM",
      "countryName": "Việt Nam",
      "county": "Hồ Chí Minh",
      "city": "Quận 3",
      "district": "Phường Võ Thị Sáu",
      "street": "Đường Võ Thị Sáu",
      "postalCode": "72415",
      "houseNumber": "169"
    },
    "position": {
      "lat": 10.78321,
      "lng": 106.68746
    },
    "access": [
      {
        "lat": 10.78324,
        "lng": 106.68743
      }
    ],
    "distance": 291,
    "categories": [
      {
        "id": "200-2000-0011",
        "name": "Bar hoặc Quán rượu",
        "primary": true
      },
      {
        "id": "100-1000-0000",
        "name": "Nhà hàng",
        "primary": false
      },
      {
        "id": "200-2000-0000",
        "name": "Giải trí về đêm",
        "primary": false
      },
      {
        "id": "200-2000-0015",
        "name": "Giải trí hoặc âm nhạc sống",
        "primary": false
      },
      {
        "id": "200-2000-0368",
        "name": "Quầy Cocktail",
        "primary": false
      }
    ]
  },
  {
    "title": "Cua Hang Non Son - Pas",
    "id": "here:pds:place:704w3gvk-bd60e3c7a16f14fe08be2557367d69a0",
    "resultType": "place",
    "address": {
      "label": "Cua Hang Non Son - Pas, 8 Đường Pasteur, Phường Võ Thị Sáu, Quận 3, Hồ Chí Minh, Việt Nam",
      "countryCode": "VNM",
      "countryName": "Việt Nam",
      "county": "Hồ Chí Minh",
      "city": "Quận 3",
      "district": "Phường Võ Thị Sáu",
      "street": "Đường Pasteur",
      "postalCode": "72415",
      "houseNumber": "8"
    },
    "position": {
      "lat": 10.78666,
      "lng": 106.6903
    },
    "access": [
      {
        "lat": 10.78662,
        "lng": 106.69027
      }
    ],
    "distance": 205,
    "categories": [
      {
        "id": "600-6800-0000",
        "name": "Quần áo \u0026 Phụ kiện",
        "primary": true
      }
    ]
  },
  {
    "title": "Cửa Hàng Thời Trang Adidas",
    "id": "here:pds:place:704t4x7z-76f49c1f25b400b5a1021bfdc486cc4c",
    "resultType": "place",
    "address": {
      "label": "Cửa Hàng Thời Trang Adidas, 232 Đường Pasteur, Phường Võ Thị Sáu, Quận 3, Hồ Chí Minh, Việt Nam",
      "countryCode": "VNM",
      "countryName": "Việt Nam",
      "county": "Hồ Chí Minh",
      "city": "Quận 3",
      "district": "Phường Võ Thị Sáu",
      "street": "Đường Pasteur",
      "postalCode": "72415",
      "houseNumber": "232"
    },
    "position": {
      "lat": 10.78489,
      "lng": 106.69124
    },
    "access": [
      {
        "lat": 10.78465,
        "lng": 106.69139
      }
    ],
    "distance": 212,
    "categories": [
      {
        "id": "600-6900-0094",
        "name": "Cửa hàng dụng cụ thể thao",
        "primary": true
      },
      {
        "id": "600-6800-0000",
        "name": "Quần áo \u0026 Phụ kiện",
        "primary": false
      }
    ]
  },
  {
    "title": "Áo Dài Thiết Lập",
    "id": "here:pds:place:704jx7ps-e5c590261a670820a0f4af93738e59ff",
    "resultType": "place",
    "address": {
      "label": "Áo Dài Thiết Lập, 268BIS Hẻm 248 Pasteur, Phường Võ Thị Sáu, Quận 3, Hồ Chí Minh, Việt Nam",
      "countryCode": "VNM",
      "countryName": "Việt Nam",
      "county": "Hồ Chí Minh",
      "city": "Quận 3",
      "district": "Phường Võ Thị Sáu",
      "street": "Hẻm 248 Pasteur",
      "postalCode": "72415",
      "houseNumber": "268BIS"
    },
    "position": {
      "lat": 10.78705,
      "lng": 106.68882
    },
    "access": [
      {
        "lat": 10.78698,
        "lng": 106.68882
      }
    ],
    "distance": 224,
    "categories": [
      {
        "id": "600-6800-0000",
        "name": "Quần áo \u0026 Phụ kiện",
        "primary": true
      },
      {
        "id": "600-6800-0090",
        "name": "Quần áo phụ nữ",
        "primary": false
      },
      {
        "id": "700-7400-0149",
        "name": "May mặc \u0026 Sửa đồ may mặc",
        "primary": false
      }
    ]
  },
  {
    "title": "Bưu Điện Cún Con",
    "id": "here:pds:place:704jx7ps-4c8710083f7805a0285447f91c8559dd",
    "resultType": "place",
    "address": {
      "label": "Bưu Điện Cún Con, 288 Đường Bùi Hữu Nghĩa, Phường 1, Quận Bình Thạnh, Hồ Chí Minh, Việt Nam",
      "countryCode": "VNM",
      "countryName": "Việt Nam",
      "county": "Hồ Chí Minh",
      "city": "Quận Bình Thạnh",
      "district": "Phường 1",
      "street": "Đường Bùi Hữu Nghĩa",
      "postalCode": "72318",
      "houseNumber": "288"
    },
    "position": {
      "lat": 10.80033,
      "lng": 106.69945
    },
    "access": [
      {
        "lat": 10.80031,
        "lng": 106.69941
      }
    ],
    "distance": 268,
    "categories": [
      {
        "id": "700-7450-0114",
        "name": "Bưu điện",
        "primary": true
      }
    ]
  },
  {
    "title": "Cơm Trưa Minh Nguyện",
    "id": "here:pds:place:704w3gvk-3570b19b8b0cad0eccbe72872dbc3ee6",
    "resultType": "place",
    "address": {
      "label": "Cơm Trưa Minh Nguyện, 53 Đường Điện Biên Phủ, Phường 15, Quận Bình Thạnh, Hồ Chí Minh, Việt Nam",
      "countryCode": "VNM",
      "countryName": "Việt Nam",
      "county": "Hồ Chí Minh",
      "city": "Quận Bình Thạnh",
      "district": "Phường 15",
      "street": "Đường Điện Biên Phủ",
      "postalCode": "72320",
      "houseNumber": "53"
    },
    "position": {
      "lat": 10.79716,
      "lng": 106.70064
    },
    "access": [
      {
        "lat": 10.79709,
        "lng": 106.70073
      }
    ],
    "distance": 204,
    "categories": [
      {
        "id": "100-1000-0000",
        "name": "Nhà hàng",
        "primary": true
      }
    ]
  },
  {
    "title": "Cơm Tấm",
    "id": "here:pds:place:704w3gvk-1d19b6b9963748148766e3211fa686f4",
    "resultType": "place",
    "address": {
      "label": "Cơm Tấm, 305 Đường Bùi Hữu Nghĩa, Phường 1, Quận Bình Thạnh, Hồ Chí Minh, Việt Nam",
      "countryCode": "VNM",
      "countryName": "Việt Nam",
      "county": "Hồ Chí Minh",
      "city": "Quận Bình Thạnh",
      "district": "Phường 1",
      "street": "Đường Bùi Hữu Nghĩa",
      "postalCode": "72318",
      "houseNumber": "305"
    },
    "position": {
      "lat": 10.79946,
      "lng": 106.69954
    },
    "access": [
      {
        "lat": 10.79945,
        "lng": 106.69954
      }
    ],
    "distance": 213,
    "categories": [
      {
        "id": "100-1000-0000",
        "name": "Nhà hàng",
        "primary": true
      }
    ]
  },
  {
    "title": "Streetgang Clothing",
    "id": "here:pds:place:704w3gv7-d3ba396a60b661669f99446e83124fbd",
    "resultType": "place",
    "address": {
      "label": "Streetgang Clothing, 12 Đường Hoa Giấy, Phường 7, Quận Phú Nhuận, Hồ Chí Minh, Việt Nam",
      "countryCode": "VNM",
      "countryName": "Việt Nam",
      "county": "Hồ Chí Minh",
      "city": "Quận Phú Nhuận",
      "district": "Phường 7",
      "street": "Đường Hoa Giấy",
      "postalCode": "72212",
      "houseNumber": "12"
    },
    "position": {
      "lat": 10.7986,
      "lng": 106.69171
    },
    "access": [
      {
        "lat": 10.79859,
        "lng": 106.69171
      }
    ],
    "distance": 214,
    "categories": [
      {
        "id": "600-6800-0000",
        "name": "Quần áo \u0026 Phụ kiện",
        "primary": true
      }
    ]
  },
  {
    "title": "Viger Freakers",
    "id": "here:pds:place:704w3gv7-f3ca271d7b9afff1f6a9ac9140613c09",
    "resultType": "place",
    "address": {
      "label": "Viger Freakers, 100 Đường Lê Văn Duyệt, Phường 3, Quận Bình Thạnh, Hồ Chí Minh, Việt Nam",
      "countryCode": "VNM",
      "countryName": "Việt Nam",
      "county": "Hồ Chí Minh",
      "city": "Quận Bình Thạnh",
      "district": "Phường 3",
      "street": "Đường Lê Văn Duyệt",
      "postalCode": "72317",
      "houseNumber": "100"
    },
    "position": {
      "lat": 10.79697,
      "lng": 106.69409
    },
    "access": [
      {
        "lat": 10.79695,
        "lng": 106.69419
      }
    ],
    "distance": 272,
    "categories": [
      {
        "id": "600-6800-0000",
        "name": "Quần áo \u0026 Phụ kiện",
        "primary": true
      }
    ]
  },
  {
    "title": "Ốc Chảo 535",
    "id": "here:pds:place:704w3gvs-22cda0e59710f797013e1dc95687ee70",
    "resultType": "place",
    "address": {
      "label": "Ốc Chảo 535, 535 Đường Phạm Văn Đồng, Phường 13, Quận Bình Thạnh, Hồ Chí Minh, Việt Nam",
      "countryCode": "VNM",
      "countryName": "Việt Nam",
      "county": "Hồ Chí Minh",
      "city": "Quận Bình Thạnh",
      "district": "Phường 13",
      "street": "Đường Phạm Văn Đồng",
      "postalCode": "72311",
      "houseNumber": "535"
    },
    "position": {
      "lat": 10.82344,
      "lng": 106.70424
    },
    "access": [
      {
        "lat": 10.82342,
        "lng": 106.70425
      }
    ],
    "distance": 327,
    "categories": [
      {
        "id": "600-6300-0064",
        "name": "Đặc sản \u0026 Đồ uống",
        "primary": true
      }
    ]
  },
  {
    "title": "Đại Lý Nước Giải Khát Mộng Hùng",
    "id": "here:pds:place:704w3gv7-6caaa770455c47ca9e750d2336bdca1f",
    "resultType": "place",
    "address": {
      "label": "Đại Lý Nước Giải Khát Mộng Hùng, 27 Đường Nơ Trang Long, Phường 13, Quận Bình Thạnh, Hồ Chí Minh, Việt Nam",
      "countryCode": "VNM",
      "countryName": "Việt Nam",
      "county": "Hồ Chí Minh",
      "city": "Quận Bình Thạnh",
      "district": "Phường 13",
      "street": "Đường Nơ Trang Long",
      "postalCode": "72311",
      "houseNumber": "27"
    },
    "position": {
      "lat": 10.82285,
      "lng": 106.70607
    },
    "access": [
      {
        "lat": 10.82288,
        "lng": 106.70607
      }
    ],
    "distance": 294,
    "categories": [
      {
        "id": "600-6300-0064",
        "name": "Đặc sản \u0026 Đồ uống",
        "primary": true
      }
    ]
  },
  {
    "title": "Dung Hải Sản",
    "id": "here:pds:place:704w3gvs-dd36c0d9db1b33314777f96ed4077e7c",
    "resultType": "place",
    "address": {
      "label": "Dung Hải Sản, 72 Đường Bình Lợi, Phường 13, Quận Bình Thạnh, Hồ Chí Minh, Việt Nam",
      "countryCode": "VNM",
      "countryName": "Việt Nam",
      "county": "Hồ Chí Minh",
      "city": "Quận Bình Thạnh",
      "district": "Phường 13",
      "street": "Đường Bình Lợi",
      "postalCode": "72311",
      "houseNumber": "72"
    },
    "position": {
      "lat": 10.82858,
      "lng": 106.70609
    },
    "access": [
      {
        "lat": 10.82856,
        "lng": 106.706
      }
    ],
    "distance": 360,
    "categories": [
      {
        "id": "600-6300-0064",
        "name": "Đặc sản \u0026 Đồ uống",
        "primary": true
      }
    ]
  },
  {
    "title": "Tạp Hoá Cô Bông",
    "id": "here:pds:place:704w3gvs-03d4d1f810857d5b8ad6fbcdf1173366",
    "resultType": "place",
    "address": {
      "label": "Tạp Hoá Cô Bông, 53/17 Đường Lương Ngọc Quyến, Phường 13, Quận Bình Thạnh, Hồ Chí Minh, Việt Nam",
      "countryCode": "VNM",
      "countryName": "Việt Nam",
      "county": "Hồ Chí Minh",
      "city": "Quận Bình Thạnh",
      "district": "Phường 13",
      "street": "Đường Lương Ngọc Quyến",
      "postalCode": "72311",
      "houseNumber": "53/17"
    },
    "position": {
      "lat": 10.82492,
      "lng": 106.70426
    },
    "access": [
      {
        "lat": 10.82473,
        "lng": 106.7043
      }
    ],
    "distance": 264,
    "categories": [
      {
        "id": "600-6000-0061",
        "name": "Cửa hàng tiện lợi",
        "primary": true
      }
    ]
  },
  {
    "title": "Bưu Điện Nơ Trang Long",
    "id": "here:pds:place:704jx7ps-fed0a95bb90b00331adce0bb810f0e1f",
    "resultType": "place",
    "address": {
      "label": "Bưu Điện Nơ Trang Long, 170G Đường Nơ Trang Long, Phường 12, Quận Bình Thạnh, Hồ Chí Minh, Việt Nam",
      "countryCode": "VNM",
      "countryName": "Việt Nam",
      "county": "Hồ Chí Minh",
      "city": "Quận Bình Thạnh",
      "district": "Phường 12",
      "street": "Đường Nơ Trang Long",
      "postalCode": "72312",
      "houseNumber": "170G"
    },
    "position": {
      "lat": 10.81159,
      "lng": 106.69585
    },
    "access": [
      {
        "lat": 10.81163,
        "lng": 106.69579
      }
    ],
    "distance": 957,
    "categories": [
      {
        "id": "700-7450-0114",
        "name": "Bưu điện",
        "primary": true
      },
      {
        "id": "700-7010-0108",
        "name": "Máy rút tiền ATM",
        "primary": false
      }
    ]
  },
  {
    "title": "Post Office-Bưu Cục Cấp 3 Chu Văn An",
    "id": "here:pds:place:704w3gvs-782849381f2a49b5a36f879e40964545",
    "resultType": "place",
    "address": {
      "label": "Post Office-Bưu Cục Cấp 3 Chu Văn An, 305 Đường Chu Văn An, Phường 12, Quận Bình Thạnh, Hồ Chí Minh, Việt Nam",
      "countryCode": "VNM",
      "countryName": "Việt Nam",
      "county": "Hồ Chí Minh",
      "city": "Quận Bình Thạnh",
      "district": "Phường 12",
      "street": "Đường Chu Văn An",
      "postalCode": "72312",
      "houseNumber": "305"
    },
    "position": {
      "lat": 10.81136,
      "lng": 106.69994
    },
    "access": [
      {
        "lat": 10.81138,
        "lng": 106.69994
      }
    ],
    "distance": 1145,
    "categories": [
      {
        "id": "700-7450-0114",
        "name": "Bưu điện",
        "primary": true
      }
    ]
  },
  {
    "title": "Couple Cinema 122",
    "id": "here:pds:place:704w3gve-7577da3f8d885c31bc2ef063f2668106",
    "resultType": "place",
    "address": {
      "label": "Couple Cinema 122, 122 Đường Lê Lợi, Phường 4, Quận Gò Vấp, Hồ Chí Minh, Việt Nam",
      "countryCode": "VNM",
      "countryName": "Việt Nam",
      "county": "Hồ Chí Minh",
      "city": "Quận Gò Vấp",
      "district": "Phường 4",
      "street": "Đường Lê Lợi",
      "postalCode": "71408",
      "houseNumber": "122"
    },
    "position": {
      "lat": 10.81882,
      "lng": 106.68508
    },
    "access": [
      {
        "lat": 10.81879,
        "lng": 106.6851
      }
    ],
    "distance": 1021,
    "categories": [
      {
        "id": "200-2100-0019",
        "name": "Rạp chiếu phim",
        "primary": true
      }
    ]
  },
  {
    "title": "Đặc Sản Miền Tây",
    "id": "here:pds:place:704d408k-193902e98dc907bda21165f2fa45e98f",
    "resultType": "place",
    "address": {
      "label": "Đặc Sản Miền Tây, 195 Đường Ngô Tất Tố, Phường 22, Quận Bình Thạnh, Hồ Chí Minh, Việt Nam",
      "countryCode": "VNM",
      "countryName": "Việt Nam",
      "county": "Hồ Chí Minh",
      "city": "Quận Bình Thạnh",
      "district": "Phường 22",
      "street": "Đường Ngô Tất Tố",
      "postalCode": "72324",
      "houseNumber": "195"
    },
    "position": {
      "lat": 10.79066,
      "lng": 106.7154
    },
    "access": [
      {
        "lat": 10.79061,
        "lng": 106.71536
      }
    ],
    "distance": 209,
    "categories": [
      {
        "id": "600-6300-0064",
        "name": "Đặc sản \u0026 Đồ uống",
        "primary": true
      },
      {
        "id": "100-1000-0000",
        "name": "Nhà hàng",
        "primary": false
      },
      {
        "id": "600-6000-0061",
        "name": "Cửa hàng tiện lợi",
        "primary": false
      },
      {
        "id": "600-6300-0066",
        "name": "Siêu thị",
        "primary": false
      },
      {
        "id": "600-6900-0000",
        "name": "Hàng tiêu dùng",
        "primary": false
      }
    ]
  },
  {
    "title": "Thành Trung",
    "id": "here:pds:place:704w3gvk-fac83101f9353c7a37f3b69baaa2059a",
    "resultType": "place",
    "address": {
      "label": "Thành Trung, 171 Đường Ngô Tất Tố, Phường 22, Quận Bình Thạnh, Hồ Chí Minh, Việt Nam",
      "countryCode": "VNM",
      "countryName": "Việt Nam",
      "county": "Hồ Chí Minh",
      "city": "Quận Bình Thạnh",
      "district": "Phường 22",
      "street": "Đường Ngô Tất Tố",
      "postalCode": "72324",
      "houseNumber": "171"
    },
    "position": {
      "lat": 10.79103,
      "lng": 106.71487
    },
    "access": [
      {
        "lat": 10.79101,
        "lng": 106.71485
      }
    ],
    "distance": 280,
    "categories": [
      {
        "id": "600-6300-0064",
        "name": "Đặc sản \u0026 Đồ uống",
        "primary": true
      },
      {
        "id": "100-1100-0010",
        "name": "Quán cà phê",
        "primary": false
      }
    ]
  },
  {
    "title": "Mr.Saigon - Kitchen \u0026 Drinks - Mì Ý, Salad Sài Gòn",
    "id": "here:pds:place:704w3gvk-a7f45c9dad4d4902a13f7d7d9d49f718",
    "resultType": "place",
    "address": {
      "label": "Mr.Saigon - Kitchen \u0026 Drinks - Mì Ý, Salad Sài Gòn, 22 Đường Nguyễn Hữu Cảnh, Phường 22, Quận Bình Thạnh, Hồ Chí Minh, Việt Nam",
      "countryCode": "VNM",
      "countryName": "Việt Nam",
      "county": "Hồ Chí Minh",
      "city": "Quận Bình Thạnh",
      "district": "Phường 22",
      "street": "Đường Nguyễn Hữu Cảnh",
      "postalCode": "72324",
      "houseNumber": "22"
    },
    "position": {
      "lat": 10.7899,
      "lng": 106.71388
    },
    "access": [
      {
        "lat": 10.7901,
        "lng": 106.71398
      }
    ],
    "distance": 334,
    "categories": [
      {
        "id": "600-6300-0064",
        "name": "Đặc sản \u0026 Đồ uống",
        "primary": true
      }
    ]
  },
  {
    "title": "Nhà Hàng Thuần Chay Vegan Kitchen",
    "id": "here:pds:place:704w3gvk-154e432d54a18eb00b9a1dfdaf2a8726",
    "resultType": "place",
    "address": {
      "label": "Nhà Hàng Thuần Chay Vegan Kitchen, 23B Đường Nguyễn Hữu Cảnh, Phường 22, Quận Bình Thạnh, Hồ Chí Minh, Việt Nam",
      "countryCode": "VNM",
      "countryName": "Việt Nam",
      "county": "Hồ Chí Minh",
      "city": "Quận Bình Thạnh",
      "district": "Phường 22",
      "street": "Đường Nguyễn Hữu Cảnh",
      "postalCode": "72324",
      "houseNumber": "23B"
    },
    "position": {
      "lat": 10.78938,
      "lng": 106.71506
    },
    "access": [
      {
        "lat": 10.78928,
        "lng": 106.71505
      }
    ],
    "distance": 203,
    "categories": [
      {
        "id": "100-1000-0000",
        "name": "Nhà hàng",
        "primary": true
      }
    ]
  },
  {
    "title": "La Gelateria",
    "id": "here:pds:place:704aabd1-c582a52b63f10e16aa5839430571546c",
    "resultType": "place",
    "address": {
      "label": "La Gelateria, 47 Đường Nguyễn Hữu Cảnh, Phường 22, Quận Bình Thạnh, Hồ Chí Minh, Việt Nam",
      "countryCode": "VNM",
      "countryName": "Việt Nam",
      "county": "Hồ Chí Minh",
      "city": "Quận Bình Thạnh",
      "district": "Phường 22",
      "street": "Đường Nguyễn Hữu Cảnh",
      "postalCode": "72324",
      "houseNumber": "47"
    },
    "position": {
      "lat": 10.79148,
      "lng": 106.71808
    },
    "access": [
      {
        "lat": 10.79148,
        "lng": 106.71825
      }
    ],
    "distance": 255,
    "categories": [
      {
        "id": "100-1000-0000",
        "name": "Nhà hàng",
        "primary": true
      },
      {
        "id": "600-6300-0244",
        "name": "Hiệu bánh",
        "primary": false
      },
      {
        "id": "700-7400-0285",
        "name": "Quán cà phê internet",
        "primary": false
      }
    ]
  },
  {
    "title": "Ơ Thương Saigon Pearl",
    "id": "here:pds:place:7044a1b0-da2826b07c419824183cdf827ec2f9a3",
    "resultType": "place",
    "address": {
      "label": "Ơ Thương Saigon Pearl, 70000 Đường Nguyễn Hữu Cảnh, Phường 22, Quận Bình Thạnh, Hồ Chí Minh, Việt Nam",
      "countryCode": "VNM",
      "countryName": "Việt Nam",
      "county": "Hồ Chí Minh",
      "city": "Quận Bình Thạnh",
      "district": "Phường 22",
      "street": "Đường Nguyễn Hữu Cảnh",
      "postalCode": "72324",
      "houseNumber": "70000"
    },
    "position": {
      "lat": 10.78717,
      "lng": 106.7171
    },
    "access": [
      {
        "lat": 10.78735,
        "lng": 106.7174
      }
    ],
    "distance": 260,
    "categories": [
      {
        "id": "100-1000-0000",
        "name": "Nhà hàng",
        "primary": true
      },
      {
        "id": "100-1000-0009",
        "name": "Quán ăn nhanh",
        "primary": false
      }
    ]
  },
  {
    "title": "Ms Chi",
    "id": "here:pds:place:704w3gvk-547b4d3c640561fa4ed68ab36e382276",
    "resultType": "place",
    "address": {
      "label": "Ms Chi, 152 Đường Ung Văn Khiêm, Phường 25, Quận Bình Thạnh, Hồ Chí Minh, Việt Nam",
      "countryCode": "VNM",
      "countryName": "Việt Nam",
      "county": "Hồ Chí Minh",
      "city": "Quận Bình Thạnh",
      "district": "Phường 25",
      "street": "Đường Ung Văn Khiêm",
      "postalCode": "72308",
      "houseNumber": "152"
    },
    "position": {
      "lat": 10.80655,
      "lng": 106.71985
    },
    "access": [
      {
        "lat": 10.80655,
        "lng": 106.71985
      }
    ],
    "distance": 213,
    "categories": [
      {
        "id": "600-6300-0064",
        "name": "Đặc sản \u0026 Đồ uống",
        "primary": true
      }
    ]
  },
  {
    "title": "Sữa Đậu Nành Đậu Phụng Sữa Bắp Mè Đen",
    "id": "here:pds:place:704w3gvk-f246a98d461a83f7e6f6d857585b16cb",
    "resultType": "place",
    "address": {
      "label": "Sữa Đậu Nành Đậu Phụng Sữa Bắp Mè Đen, 117 Đường Nguyễn Văn Thương, Phường 25, Quận Bình Thạnh, Hồ Chí Minh, Việt Nam",
      "countryCode": "VNM",
      "countryName": "Việt Nam",
      "county": "Hồ Chí Minh",
      "city": "Quận Bình Thạnh",
      "district": "Phường 25",
      "street": "Đường Nguyễn Văn Thương",
      "postalCode": "72308",
      "houseNumber": "117"
    },
    "position": {
      "lat": 10.80261,
      "lng": 106.71956
    },
    "access": [
      {
        "lat": 10.8026,
        "lng": 106.71956
      }
    ],
    "distance": 322,
    "categories": [
      {
        "id": "600-6300-0064",
        "name": "Đặc sản \u0026 Đồ uống",
        "primary": true
      },
      {
        "id": "600-6000-0061",
        "name": "Cửa hàng tiện lợi",
        "primary": false
      },
      {
        "id": "600-6300-0066",
        "name": "Siêu thị",
        "primary": false
      }
    ]
  },
  {
    "title": "A Ngáo Chi Nhánh 6",
    "id": "here:pds:place:704w3gvk-95f68230351991a15c18095e6cc63ba4",
    "resultType": "place",
    "address": {
      "label": "A Ngáo Chi Nhánh 6, 51 Đường Võ Oanh, Phường 25, Quận Bình Thạnh, Hồ Chí Minh, Việt Nam",
      "countryCode": "VNM",
      "countryName": "Việt Nam",
      "county": "Hồ Chí Minh",
      "city": "Quận Bình Thạnh",
      "district": "Phường 25",
      "street": "Đường Võ Oanh",
      "postalCode": "72308",
      "houseNumber": "51"
    },
    "position": {
      "lat": 10.80381,
      "lng": 106.71833
    },
    "access": [
      {
        "lat": 10.8038,
        "lng": 106.71832
      }
    ],
    "distance": 334,
    "categories": [
      {
        "id": "600-6300-0064",
        "name": "Đặc sản \u0026 Đồ uống",
        "primary": true
      }
    ]
  },
  {
    "title": "The Brick Hidden Bar and Coffee Shop",
    "id": "here:pds:place:704w3gvk-10f60f48368157e01c3a611fae6179b6",
    "resultType": "place",
    "address": {
      "label": "The Brick Hidden Bar and Coffee Shop, 187 Đường D5, Phường 25, Quận Bình Thạnh, Hồ Chí Minh, Việt Nam",
      "countryCode": "VNM",
      "countryName": "Việt Nam",
      "county": "Hồ Chí Minh",
      "city": "Quận Bình Thạnh",
      "district": "Phường 25",
      "street": "Đường D5",
      "postalCode": "72308",
      "houseNumber": "187"
    },
    "position": {
      "lat": 10.80551,
      "lng": 106.71894
    },
    "access": [
      {
        "lat": 10.80545,
        "lng": 106.71883
      }
    ],
    "distance": 241,
    "categories": [
      {
        "id": "100-1000-0001",
        "name": "Quán ăn bình dân",
        "primary": true
      },
      {
        "id": "100-1000-0004",
        "name": "Chợ/Gian hàng ẩm thực",
        "primary": false
      },
      {
        "id": "200-2000-0011",
        "name": "Bar hoặc Quán rượu",
        "primary": false
      }
    ]
  },
  {
    "title": "Salus",
    "id": "here:pds:place:704c42e3-4bae23a6c0e41e76527b2938fa27e31a",
    "resultType": "place",
    "address": {
      "label": "Salus, 52 Đường Nguyễn Văn Thương, Phường 25, Quận Bình Thạnh, Hồ Chí Minh, Việt Nam",
      "countryCode": "VNM",
      "countryName": "Việt Nam",
      "county": "Hồ Chí Minh",
      "city": "Quận Bình Thạnh",
      "district": "Phường 25",
      "street": "Đường Nguyễn Văn Thương",
      "postalCode": "72308",
      "houseNumber": "52"
    },
    "position": {
      "lat": 10.80151,
      "lng": 106.71897
    },
    "access": [
      {
        "lat": 10.80153,
        "lng": 106.71892
      }
    ],
    "distance": 460,
    "categories": [
      {
        "id": "200-2000-0011",
        "name": "Bar hoặc Quán rượu",
        "primary": true
      }
    ]
  },
  {
    "title": "Nhà Hàng Thiên Đàng 213 Club",
    "id": "here:pds:place:704jx7ps-4fe203bfb1d00a7f25774b05f3a78c4b",
    "resultType": "place",
    "address": {
      "label": "Nhà Hàng Thiên Đàng 213 Club, 213 Đường Nguyễn Gia Trí, Phường 25, Quận Bình Thạnh, Hồ Chí Minh, Việt Nam",
      "countryCode": "VNM",
      "countryName": "Việt Nam",
      "county": "Hồ Chí Minh",
      "city": "Quận Bình Thạnh",
      "district": "Phường 25",
      "street": "Đường Nguyễn Gia Trí",
      "postalCode": "72308",
      "houseNumber": "213"
    },
    "position": {
      "lat": 10.80677,
      "lng": 106.71615
    },
    "access": [
      {
        "lat": 10.80671,
        "lng": 106.71618
      }
    ],
    "distance": 572,
    "categories": [
      {
        "id": "200-2000-0011",
        "name": "Bar hoặc Quán rượu",
        "primary": true
      },
      {
        "id": "800-8600-0180",
        "name": "Khu liên hợp hoặc sân vận động thể thao",
        "primary": false
      }
    ]
  },
  {
    "title": "Techcombank",
    "id": "here:pds:place:704w3gve-74a975a551c2ce379a554dc405e39ff3",
    "resultType": "place",
    "address": {
      "label": "Techcombank, 213 Đường Nguyễn Thái Sơn, Phường 7, Quận Gò Vấp, Hồ Chí Minh, Việt Nam",
      "countryCode": "VNM",
      "countryName": "Việt Nam",
      "county": "Hồ Chí Minh",
      "city": "Quận Gò Vấp",
      "district": "Phường 7",
      "street": "Đường Nguyễn Thái Sơn",
      "postalCode": "71407",
      "houseNumber": "213"
    },
    "position": {
      "lat": 10.82516,
      "lng": 106.68774
    },
    "access": [
      {
        "lat": 10.8252,
        "lng": 106.6878
      }
    ],
    "distance": 205,
    "categories": [
      {
        "id": "700-7000-0107",
        "name": "Ngân hàng",
        "primary": true
      },
      {
        "id": "700-7010-0108",
        "name": "Máy rút tiền ATM",
        "primary": false
      }
    ]
  }
]
